{"Uusimaa":{"Helsinki":{"Hietaniemen hautausmaa":{"name":"Hietaniemen hautausmaa","lat":"60.1708088","lng":"24.9145887","address":"Hietanimenkatu 20"},"Hietaniemen Islamilainen hautausmaa":{"name":"Hietaniemen Islamilainen hautausmaa","lat":"60.164871","lng":"24.9151787","address":"Lapinlahti"},"Hietaniemen Juutalainen hautausmaa":{"name":"Hietaniemen Juutalainen hautausmaa","lat":"60.17394399999999","lng":"24.912292","address":"Tuonelankuja 5"},"Suomen Kaartin hautausmaa":{"name":"Suomen Kaartin hautausmaa","lat":"60.1653047","lng":"24.9156278","address":"Lapinlahdentie"},"Helsingin ortodoksinen hautausmaa":{"name":"Helsingin ortodoksinen hautausmaa","lat":"60.1657655","lng":"24.9185328","address":"Lapinlahdentie 2-4"},"Kulosaaren hautausmaa":{"name":"Kulosaaren hautausmaa","lat":"60.1915369","lng":"25.0013413","address":"Leposaarentie"},"Maunulan uurnalehto":{"name":"Maunulan uurnalehto","lat":"60.227616","lng":"24.9175031","address":"Pirkkolantie 22"},"Malmin hautausmaa":{"name":"Malmin hautausmaa","lat":"60.236382","lng":"25.0264598","address":"Malmin kalmistotie"},"Östersundomin hautausmaa":{"name":"Östersundomin hautausmaa","lat":"60.2494422","lng":"25.1888938","address":"Kappelintie 65"},"Honkanummen hautausmaa":{"name":"Honkanummen hautausmaa","lat":"","lng":"","address":"Vanha Porvoontie 225"}},"Vantaa":{"Honkanummen hautausmaa":{"name":"Honkanummen hautausmaa","lat":"60.30782079999999","lng":"25.1131234","address":"Vanha Porvoontie 225"},"Ruskeasannan hautausmaa":{"name":"Ruskeasannan hautausmaa","lat":"60.3168494","lng":"24.9933996","address":"Ruskeasannantie 2"},"Hämeenkylän kirkon hautausmaa":{"name":"Hämeenkylän kirkon hautausmaa","lat":"60.26953700000001","lng":"24.8006179","address":"Auratie 3"},"Helsingin pitäjän kirkon hautausmaa":{"name":"Helsingin pitäjän kirkon hautausmaa","lat":"60.2832621","lng":"24.9885334","address":"Pappilankuja 5"}},"Nurmijärvi":{"Nurmijärven hautausmaa":{"name":"Nurmijärven hautausmaa","lat":"60.4573268","lng":"24.8153859","address":"Aleksis Kiven tie 2"}},"Espoo":{"Tapiolan uurnalehto":{"name":"Tapiolan uurnalehto","lat":"60.1779488","lng":"24.808413","address":"Kirkkopolku 4"},"Kirkon hautausmaa":{"name":"Kirkon hautausmaa","lat":"60.2101978","lng":"24.651707","address":"Kirkonmäentie 1"},"Kellonummen hautausmaa":{"name":"Kellonummen hautausmaa","lat":"60.2382143","lng":"24.6390781","address":"Kellonummentie 15"},"Kappelin hautausmaa":{"name":"Kappelin hautausmaa","lat":"60.20643619999999","lng":"24.6440698","address":"Pappilantie 12"},"Gräsan uurnalehto":{"name":"Gräsan uurnalehto","lat":"60.17202769999999","lng":"24.7575763","address":"Olarinluoma 4"}},"Kirkkonummi":{"Kirkkonummen vanha hautausmaa":{"name":"Kirkkonummen vanha hautausmaa","lat":"60.12521940000001","lng":"24.4400057","address":"Tallinmäki 1"}},"Veikkola":{"Haapajärven hautausmaa":{"name":"Haapajärven hautausmaa","lat":"60.23816489999999","lng":"24.4603861","address":"Lapinkyläntie 421"}},"Siuntio":{"Siuntion hautausmaa":{"name":"Siuntion hautausmaa","lat":"60.1765644","lng":"24.2045231","address":"Suitiantie 51\/Kalasinkuja 5"}},"Kauniainen":{"Kauniaisten hautausmaa":{"name":"Kauniaisten hautausmaa","lat":"60.21653259999999","lng":"24.6996958","address":"Bembölentie 34"}},"Vihti":{"Vihdin hautausmaa":{"name":"Vihdin hautausmaa","lat":"60.4174808","lng":"24.2688628","address":"Kartanontie 51"}},"Karkkila":{"Karkkilan uusi hautausmaa":{"name":"Karkkilan uusi hautausmaa","lat":"60.5381074","lng":"24.2384663","address":"Kappelitie 6"},"Karkkilan vanha hautausmaa":{"name":"Karkkilan vanha hautausmaa","lat":"60.53640350000001","lng":"24.2185827","address":"Huhdintie 6"}},"Vihtijärvi":{"Vihtijärven hautausmaa":{"name":"Vihtijärven hautausmaa","lat":"60.5233603","lng":"24.5420898","address":"Koulunummentie 16"}},"Pusula":{"Pusulan hautausmaa":{"name":"Pusulan hautausmaa","lat":"60.48898630000001","lng":"23.9652409","address":"Marttilantie 1"}},"Sipoo":{"Sipoon kirkonkylän hautausmaa":{"name":"Sipoon kirkonkylän hautausmaa","lat":"60.3706815","lng":"25.2596866","address":"Uusi Kappelintie 1"}},"Tuusula":{"Keravan seurakunnan hautausmaa":{"name":"Keravan seurakunnan hautausmaa","lat":"60.3980769","lng":"25.0582745","address":"Kappelikuja 24-26"},"Paijalan hautausmaa":{"name":"Paijalan hautausmaa","lat":"60.41035119999999","lng":"25.0102053","address":"Paijalannummentie 11"},"Kellokosken hautausmaa":{"name":"Kellokosken hautausmaa","lat":"60.53839559999999","lng":"25.0977444","address":"Omenalahdentie 23"}},"Järvenpää":{"Järvenpään hautausmaa":{"name":"Järvenpään hautausmaa","lat":"60.4931732","lng":"25.1038718","address":"Kaukotie 47"}},"Mäntsälä":{"Mäntsälän hautausmaa":{"name":"Mäntsälän hautausmaa","lat":"60.62559779999999","lng":"25.3316407","address":"Vanha Porvoontie 17"}},"Rajamäki":{"Rajamäen hautausmaa":{"name":"Rajamäen hautausmaa","lat":"60.53522049999999","lng":"24.7282211","address":"Astrakanintie 100"}},"Hyvinkää":{"Kytäjän hautausmaa":{"name":"Kytäjän hautausmaa","lat":"60.58283830000001","lng":"24.7128393","address":"Palkkisillantie 11"},"Rautatienrakentajien hautausmaa":{"name":"Rautatienrakentajien hautausmaa","lat":"60.63661159999999","lng":"24.8534812","address":"Sandelinkatu 13"},"Puolimatkan hautausmaa":{"name":"Puolimatkan hautausmaa","lat":"60.6187153","lng":"24.841539","address":"Aholankatu 20"},"Rauhanummen hautausmaa":{"name":"Rauhanummen hautausmaa","lat":"60.673515","lng":"24.894891","address":"Hikiäntie 1433"}},"Porvoo":{"Näsinmäen hautausmaa":{"name":"Näsinmäen hautausmaa","lat":"60.3940129","lng":"25.6490247","address":"Näsinmäentie 5"}},"Pornainen":{"Pornaisten seurakunnan hautausmaa":{"name":"Pornaisten seurakunnan hautausmaa","lat":"60.47417230000001","lng":"25.3764807","address":"Kirkkotie 138"}},"Askola":{"Askolan hautausmaa":{"name":"Askolan hautausmaa","lat":"60.531972","lng":"25.6051417","address":"Askolantie 29"}},"Pukkila":{"Pukkilan hautausmaa":{"name":"Pukkilan hautausmaa","lat":"60.6466241","lng":"25.5851556","address":"Keskustie 25"}},"Myrskylä":{"Myrskylän hautausmaa":{"name":"Myrskylän hautausmaa","lat":"60.66748279999999","lng":"25.8517216","address":"Keskustie 5"}},"Lapinjärvi":{"Lapinjärven hautausmaa":{"name":"Lapinjärven hautausmaa","lat":"60.6196552","lng":"26.1973446","address":"Lapinjärventie 18"}},"Loviisa":{"Liljendalin sankarihautausmaa":{"name":"Liljendalin sankarihautausmaa","lat":"60.572255","lng":"26.0475718","address":"07880 Lovisa"},"Loviisan uusi hautausmaa":{"name":"Loviisan uusi hautausmaa","lat":"60.45007159999999","lng":"26.2259016","address":"Läntinen harjutie 21"}},"Pernaja":{"Pernajan uusi haurausmaa":{"name":"Pernajan uusi haurausmaa","lat":"60.4382996","lng":"26.0494695","address":"Pernajantie 363"}},"Ahvenkoski":{"Ahvenkosken hautausmaa":{"name":"Ahvenkosken hautausmaa","lat":"60.5028496","lng":"26.4593067","address":"Elimäentie 150"}},"Lohja":{"Metsolan hautausmaa":{"name":"Metsolan hautausmaa","lat":"60.2398987","lng":"24.0633041","address":"Myyryntie 2"},"Virkkalan hautausmaa":{"name":"Virkkalan hautausmaa","lat":"60.185158","lng":"23.9983261","address":"Virkkalantie 1"}},"Karjalohja":{"Karjalohjan hautausmaat":{"name":"Karjalohjan hautausmaat","lat":"60.2462559","lng":"23.7339109","address":"Keskustie 30"}},"Sammatti":{"Sammattin hautausmaa":{"name":"Sammattin hautausmaa","lat":"60.3200918","lng":"23.8220262","address":"Lönnrotintie 19"}},"Nummi":{"Nummen hautausmaa":{"name":"Nummen hautausmaa","lat":"60.395399","lng":"23.8793928","address":"Nummenkirkontie 10"}},"Inkoo":{"Inkoon hautausmaa":{"name":"Inkoon hautausmaa","lat":"60.04496779999999","lng":"24.0019277","address":"Ola Westmanin puistotie 12"}},"Karjaa":{"Pyhän Olavin hautausmaa":{"name":"Pyhän Olavin hautausmaa","lat":"60.0724927","lng":"23.669006","address":"Keskuskatu 23"}},"Mustio":{"Mustion hautausmaa":{"name":"Mustion hautausmaa","lat":"60.1577485","lng":"23.8383249","address":"Gråstörmintie"}},"Raasepori":{"Pohjan vanha hautausmaa":{"name":"Pohjan vanha hautausmaa","lat":"60.0944673","lng":"23.5211009","address":"Vanha Turuntie 79"},"Bromarvin hautausmaa":{"name":"Bromarvin hautausmaa","lat":"60.0224566","lng":"23.1749143","address":"Bromarvintie 1850"},"Tammisaaren hautausmaa":{"name":"Tammisaaren hautausmaa","lat":"59.9772766","lng":"23.4626286","address":"Raaseporintie 33"},"Snappertunan Kirkon hautausmaa":{"name":"Snappertunan Kirkon hautausmaa","lat":"59.99831299999999","lng":"23.6502737","address":"Snappertunan kirkkotie 91"},"Ramskullan hautausmaa":{"name":"Ramskullan hautausmaa","lat":"60.0994463","lng":"23.5164402","address":"Kappelintie 5"}},"Tenhola":{"Tenholan vanha hautausmaa":{"name":"Tenholan vanha hautausmaa","lat":"60.0596645","lng":"23.294986","address":"Pitäjäntie 13"}},"Lappohja":{"Lappohjan hautausmaa":{"name":"Lappohjan hautausmaa","lat":"59.9057104","lng":"23.2399141","address":"Vanha kantatie 2"}},"Hanko":{"Hangon hautausmaa":{"name":"Hangon hautausmaa","lat":"59.8274123","lng":"22.9446809","address":"Tulliniementie 31"}}},"Kanta-Häme":{"Riihimäki":{"Riihimäen hautausmaa":{"name":"Riihimäen hautausmaa","lat":"60.7293015","lng":"24.7486275","address":"Koivukatu 21"}},"Hausjärvi":{"Hausjärven hautausmaa":{"name":"Hausjärven hautausmaa","lat":"60.772992","lng":"24.928837","address":"Hikäntie 51"}},"Loppi":{"Lopen hautausmaa":{"name":"Lopen hautausmaa","lat":"60.7164352","lng":"24.4426447","address":"Pilpalantie 2"}},"Hauho":{"Hauhon hautausmaa":{"name":"Hauhon hautausmaa","lat":"61.14392650000001","lng":"24.5712022","address":"Hauhontaustantie 2"}},"Hämeenlinna":{"Vanajan hautausmaa":{"name":"Vanajan hautausmaa","lat":"60.9789691","lng":"24.5036966","address":"Hautausmaantie 1"},"Ahveniston hautausmaa":{"name":"Ahveniston hautausmaa","lat":"60.98955669999999","lng":"24.4205478","address":"Ahvenistontie 18"},"Vuorentaan hautausmaa":{"name":"Vuorentaan hautausmaa","lat":"60.99387889999999","lng":"24.4024384","address":"Marssitie 23"}},"Hattula":{"Hattulan hautausmaa":{"name":"Hattulan hautausmaa","lat":"61.0684487","lng":"24.3887983","address":"Kirkkotie 29"}},"Janakkala":{"Janakkalan hautausmaa":{"name":"Janakkalan hautausmaa","lat":"60.8934027","lng":"24.5972682","address":"Hakoistentie 345"}},"Renko":{"Rengon uusi hautausmaa":{"name":"Rengon uusi hautausmaa","lat":"60.8964052","lng":"24.2914156","address":"Kappelintie 11"}},"Iittala":{"Kalvolan hautausmaa":{"name":"Kalvolan hautausmaa","lat":"61.09513009999999","lng":"24.1090147","address":"Iittalantie 305"}},"Lammi":{"Lammin hautausmaa":{"name":"Lammin hautausmaa","lat":"61.08024510000001","lng":"25.0132756","address":"Katariinantie 2"}},"Tyrväntö":{"Tyrvännön hautausmaa":{"name":"Tyrvännön hautausmaa","lat":"61.15358250000001","lng":"24.335247","address":"Kirkkomäki 10"}},"Tuulos":{"Tuuloksen hautausmaa":{"name":"Tuuloksen hautausmaa","lat":"61.1484853","lng":"24.7845121","address":"Vuorentaustantie 1"}},"Forssa":{"Forssan hautausmaa":{"name":"Forssan hautausmaa","lat":"60.8309291","lng":"23.6174803","address":"Tampereentie 10"},"Torron hautausmaa":{"name":"Torron hautausmaa","lat":"60.7321402","lng":"23.5358097","address":"Pursiontie 23"}},"Koijärvi":{"Koijärve hautausmaa":{"name":"Koijärve hautausmaa","lat":"60.9437404","lng":"23.6543045","address":"Kojontir 94"}},"Tammela":{"Tammelan hautausmaa":{"name":"Tammelan hautausmaa","lat":"60.80925790000001","lng":"23.7610259","address":"Tammelantie 31"}},"Jokioinen":{"Jokioisten hautausmaa":{"name":"Jokioisten hautausmaa","lat":"60.812759","lng":"23.4643194","address":"Kirkkotie 101"}},"Humppila":{"Humppilan hautausmaa":{"name":"Humppilan hautausmaa","lat":"60.9331645","lng":"23.3645331","address":"Koivistontie 15"}},"Ypäjä":{"Ypäjän hautausmaa":{"name":"Ypäjän hautausmaa","lat":"60.8037485","lng":"23.2791011","address":"Perttulantie 6"}}},"Päijät-Häme":{"Lahti":{"Lahden Vanha hautausmaa":{"name":"Lahden Vanha hautausmaa","lat":"60.978073","lng":"25.651338","address":"Radiomäenkatu 20"},"Levon hautausmaa":{"name":"Levon hautausmaa","lat":"60.9637566","lng":"25.7409081","address":"Levonkatu 4"},"Läntinen hautausmaa":{"name":"Läntinen hautausmaa","lat":"60.97992569999999","lng":"25.6122341","address":"Hämeenlinnantie 57"},"Mustankallion hautausmaa":{"name":"Mustankallion hautausmaa","lat":"60.985689","lng":"25.6795994","address":"Huhtakatu 25"},"Lahden sankarihautausmaa":{"name":"Lahden sankarihautausmaa","lat":"60.985606","lng":"25.657228","address":"Kirkkokatu 4"}},"Nastola":{"Nastolan hautausmaa":{"name":"Nastolan hautausmaa","lat":"60.9457819","lng":"25.9312901","address":"Karhusillantie 10"}},"Hollola":{"Hollolan hautausmaa":{"name":"Hollolan hautausmaa","lat":"61.0521612","lng":"25.4322583","address":"Parinpellontie 19"}},"Artjärvi":{"Artjärven hautausmaa":{"name":"Artjärven hautausmaa","lat":"60.7457748","lng":"26.0752631","address":"Kirkkotie 23"}},"Kuivanto":{"Kuivannon hautausmaa":{"name":"Kuivannon hautausmaa","lat":"60.8593472","lng":"25.9981329","address":"Koskustentie 1346"}},"Orimattila":{"Orimattilan hautausmaa":{"name":"Orimattilan hautausmaa","lat":"60.8082127","lng":"25.7333873","address":"Kirkkopuisto"}},"Kärkölä":{"Kärkölän hautausmaa":{"name":"Kärkölän hautausmaa","lat":"60.89907460000001","lng":"25.2345744","address":"Lappilantie 3"}},"Kalkkinen":{"Kalkkisten hautausmaa":{"name":"Kalkkisten hautausmaa","lat":"61.3240222","lng":"25.720375","address":"Nuoramoistentie 221"}},"Asikkala":{"Asikkalan hautausmaa":{"name":"Asikkalan hautausmaa","lat":"61.218479","lng":"25.49036","address":"Pulkkilantie 50"}},"Padasjoki":{"Padasjoen hautausmaa":{"name":"Padasjoen hautausmaa","lat":"61.35843159999999","lng":"25.2808767","address":"Saaritie 10"}},"Heinola":{"Heinolan uusi hautausmaa":{"name":"Heinolan uusi hautausmaa","lat":"61.2462051","lng":"26.0617221","address":"Kappelitie"},"Heinolan vanha hautausmaa":{"name":"Heinolan vanha hautausmaa","lat":"61.2518071","lng":"26.068567","address":"Kirkkotie 138"}},"Nuoramoinen":{"Nuoramoisten hautausmaa":{"name":"Nuoramoisten hautausmaa","lat":"61.40864379999999","lng":"25.9006783","address":"Tepoontie 160"}},"Hartola":{"Hartolan hautausmaa":{"name":"Hartolan hautausmaa","lat":"61.577245","lng":"26.0205561","address":"Kirkkotie 2"}},"Sysmä":{"Sysmän kirkkomaa":{"name":"Sysmän kirkkomaa","lat":"61.4971923","lng":"25.6717635","address":"Kirkkokuja 1"}}},"Varsinais-Suomi":{"Koski TI":{"Kosken hautausmaa":{"name":"Kosken hautausmaa","lat":"60.6590964","lng":"23.1486964","address":"Hämeentie 47"}},"Turku":{"Turun hautausmaa":{"name":"Turun hautausmaa","lat":"60.43539550000001","lng":"22.3118445","address":"Hautausmaantie 21"},"Maarian hautausmaa":{"name":"Maarian hautausmaa","lat":"60.47711870000001","lng":"22.2920597","address":"Vanha Tampereentie 120"},"Kärsämäen hautausmaa":{"name":"Kärsämäen hautausmaa","lat":"60.492626","lng":"22.2761","address":"Vanhontie 3"},"Katariinan hautausmaa":{"name":"Katariinan hautausmaa","lat":"60.462673","lng":"22.2910891","address":"Kirkkotie 46"},"Kakskerran hautausmaa":{"name":"Kakskerran hautausmaa","lat":"60.36997119999999","lng":"22.219508","address":"Kakskerran kikkotie 110"},"Paattisten hautausmaa":{"name":"Paattisten hautausmaa","lat":"60.5911067","lng":"22.3809371","address":"Paattistentie 847"}},"Naantali":{"Naantalin kirkon hautausmaa":{"name":"Naantalin kirkon hautausmaa","lat":"60.4715904","lng":"22.0166477","address":"Abbedissankatu"},"Velkuan hautausmaa":{"name":"Velkuan hautausmaa","lat":"60.4650756","lng":"21.6684707","address":"Palvan kirkkotie 21"}},"Rymättylä":{"Rymättylän hautausmaa":{"name":"Rymättylän hautausmaa","lat":"60.3763141","lng":"21.944685","address":"Viluntie 2"}},"Merimasku":{"Merimaskun hautausmaa":{"name":"Merimaskun hautausmaa","lat":"60.47442689999999","lng":"21.8443354","address":"Kukolaistentie 13"}},"Raisio":{"Raision hautausmaa":{"name":"Raision hautausmaa","lat":"60.48447419999999","lng":"22.1763953","address":"Kirkkotie 2"}},"Masku":{"Lemun hautausmaa":{"name":"Lemun hautausmaa","lat":"60.5595629","lng":"21.9757249","address":"Monnoistentie 18"},"Maskun hautausmaa":{"name":"Maskun hautausmaa","lat":"60.5644952","lng":"22.098435","address":"Maskuntie 72"}},"Askainen":{"Askaisten hautausmaa":{"name":"Askaisten hautausmaa","lat":"60.5701608","lng":"21.863591","address":"Askaistentie 788"}},"Nousiainen":{"Nousiaisten hautausmaa":{"name":"Nousiaisten hautausmaa","lat":"60.615831","lng":"22.1274761","address":"Kirkkotie 210"}},"Rusko":{"Ruskon hautausmaa":{"name":"Ruskon hautausmaa","lat":"60.52991220000001","lng":"22.2122869","address":"Ruskon kirkkotie 17"}},"Vahto":{"Vahdon hautausmaa":{"name":"Vahdon hautausmaa","lat":"60.60921750000001","lng":"22.3078626","address":"Vahdontie 1499"}},"Lieto":{"Liedon kirkon hautausmaa":{"name":"Liedon kirkon hautausmaa","lat":"60.50842789999999","lng":"22.449789","address":"Kirkkotie 14"}},"Auran kirkonkylä":{"Auran seurakunnan hautausmaa":{"name":"Auran seurakunnan hautausmaa","lat":"60.60853789999999","lng":"22.5630791","address":"Turuntie 437"}},"Tarvasjoki":{"Tarvasjoen hautausmaa":{"name":"Tarvasjoen hautausmaa","lat":"60.5861449","lng":"22.7388825","address":"Tarvasjoen Kirkko"}},"Marttila":{"Marttilan hautausmaa":{"name":"Marttilan hautausmaa","lat":"60.58320769999999","lng":"22.8999862","address":"Kirkkotie 3"}},"Piikkiö":{"Piikkiön hautausmaa":{"name":"Piikkiön hautausmaa","lat":"60.42747799999999","lng":"22.5180304","address":"Hadvalantie 5"}},"Paimio":{"Paimion hautausmaa":{"name":"Paimion hautausmaa","lat":"60.453538","lng":"22.6979457","address":"Vistantie 20"}},"Sauvo":{"Sauvon hautausmaa":{"name":"Sauvon hautausmaa","lat":"60.342581","lng":"22.7004879","address":"Sauvontie 50"}},"Karuna":{"Karunan hautausmaa":{"name":"Karunan hautausmaa","lat":"60.2723269","lng":"22.5429306","address":"Karunan kirkkotie 66"}},"Parainen":{"Paraisten hautausmaa":{"name":"Paraisten hautausmaa","lat":"60.3049201","lng":"22.3088674","address":"Kirkkoesplanadi 8"}},"Kuusisto":{"Kuusiston hautausmaa":{"name":"Kuusiston hautausmaa","lat":"60.3815634","lng":"22.4103271","address":"Linnanrauniontie 157"}},"Nauvo":{"Nauvon hautausmaa":{"name":"Nauvon hautausmaa","lat":"60.1927157","lng":"21.9091943","address":"Kirkkolaisun 1"}},"Korppoo":{"Korppoon hautausmaa":{"name":"Korppoon hautausmaa","lat":"60.1636313","lng":"21.5611504","address":"Korppoontie 1"}},"Norrskata":{"Norrskatan hautausmaa":{"name":"Norrskatan hautausmaa","lat":"60.2291667","lng":"21.5952778","address":"Änkistentie 540"}},"Houtskari":{"Houtskarin hautausmaa":{"name":"Houtskarin hautausmaa","lat":"60.22289070000001","lng":"21.3722884","address":"Pyhän Andreaksen tie 18"}},"Kyrö":{"Karinaisten hautausmaat":{"name":"Karinaisten hautausmaat","lat":"60.67376760000001","lng":"22.7694707","address":"Kyröntie 484"}},"Pöytyä":{"Pöytyän hautausmaa":{"name":"Pöytyän hautausmaa","lat":"60.76042709999999","lng":"22.643974","address":"Turuntie 1163"}},"Yläne":{"Yläneen hautausmaa":{"name":"Yläneen hautausmaa","lat":"60.8820929","lng":"22.4070624","address":"Kirkkokuja 2"}},"Pärnäinen":{"Jurmon hautausmaa":{"name":"Jurmon hautausmaa","lat":"59.8259458","lng":"21.6020326","address":"Jurmon kylätie 137"}},"Mynämäki":{"Mynämäen kirkko":{"name":"Mynämäen kirkko","lat":"60.6791206","lng":"21.9891232","address":"Kirkkokatu 3"}},"Mietoinen":{"Mietoisten kirkko":{"name":"Mietoisten kirkko","lat":"60.62820809999999","lng":"21.9222437","address":"Kirkkotie 104"}},"Vehmaa":{"Vehmaan hautausmaa":{"name":"Vehmaan hautausmaa","lat":"60.6821835","lng":"21.6660488","address":"Kirkkotie 14"}},"Taivassalo":{"Taivassalon Pyhän ristin kirkko hm":{"name":"Taivassalon Pyhän ristin kirkko hm","lat":"60.5633566","lng":"21.6072191","address":"Keskustie 4"}},"Kustavi":{"Kustavin hautausmaa":{"name":"Kustavin hautausmaa","lat":"60.5440753","lng":"21.3540061","address":"Kirkkotie 3"}},"Iniö":{"Iniön hautausmaa":{"name":"Iniön hautausmaa","lat":"60.39687379999999","lng":"21.3869552","address":"Kommunhusbacken 1"}},"Lokalahti":{"Lokalahden hautausmaa":{"name":"Lokalahden hautausmaa","lat":"60.68146929999999","lng":"21.4644493","address":"Palomäentie 18"}},"Uusikaupunki":{"Uudenkaupungin hautausmaa":{"name":"Uudenkaupungin hautausmaa","lat":"60.8047869","lng":"21.4470711","address":"Autotehtaankatu 1"}},"Kalanti":{"Kalannin kirkko":{"name":"Kalannin kirkko","lat":"60.817407","lng":"21.5577945","address":"Pyhän Olavin tie"}},"Laitila":{"Laitilan hautausmaa":{"name":"Laitilan hautausmaa","lat":"60.87818319999999","lng":"21.6937059","address":"Kirkkotie 3"}},"Pyhämaa":{"Pyhämaan kirkko":{"name":"Pyhämaan kirkko","lat":"60.9517654","lng":"21.370387","address":"Kirkontaustantie 15"}},"Pyhäranta":{"Pyhärannan kirkko":{"name":"Pyhärannan kirkko","lat":"60.9475384","lng":"21.4433064","address":"Kirkkopolku 9"}},"Salo":{"Salon hautausmaa":{"name":"Salon hautausmaa","lat":"60.39593319999999","lng":"23.1494152","address":"Haukkalankayu 2"},"Kirkkohautausmaa":{"name":"Kirkkohautausmaa","lat":"60.37599830000001","lng":"23.1317116","address":"Sairaalantie 5"},"Helisnummen hautausmaa":{"name":"Helisnummen hautausmaa","lat":"60.35493229999999","lng":"23.1199665","address":"Hämeenkyläntie 2"},"Kiikalan hautausmaa":{"name":"Kiikalan hautausmaa","lat":"60.4624332","lng":"23.5552574","address":"Kirkkotie 1"}},"Halikko":{"Halikon hautausmaa":{"name":"Halikon hautausmaa","lat":"60.39985","lng":"23.0722879","address":"Kirkkorinne"}},"Muurla":{"Muurlan hautausmaa":{"name":"Muurlan hautausmaa","lat":"60.3496976","lng":"23.2794578","address":"Muurlantie 347"}},"Angelniemi":{"Angelniemen hautausmaa":{"name":"Angelniemen hautausmaa","lat":"60.29752709999999","lng":"22.9076297","address":"Angelniementie 261"}},"Vaskio":{"Vaskion hautausmaa":{"name":"Vaskion hautausmaa","lat":"60.4903435","lng":"22.9869422","address":"Säästäjäntie 1"}},"Kuusjoki":{"Kuusjoen hautausmaa":{"name":"Kuusjoen hautausmaa","lat":"60.5142612","lng":"23.226163","address":"Kuusjoentie 530"}},"Pertteli":{"Perttelin hautausmaa":{"name":"Perttelin hautausmaa","lat":"60.4473848","lng":"23.2507361","address":"Kaivolantie 150"}},"Suomusjärvi":{"Suomusjärven hautausmaa":{"name":"Suomusjärven hautausmaa","lat":"60.3575665","lng":"23.6477959","address":"Karjalohjantie"}},"Kisko":{"Kiskon hautausmaa":{"name":"Kiskon hautausmaa","lat":"60.2470118","lng":"23.4769293","address":"Kirkonkyläntie 31"}},"Perniö":{"Perniön kappelihautausmaa":{"name":"Perniön kappelihautausmaa","lat":"60.2005802","lng":"23.1200641","address":"Heikkiläntie 5"}},"Särkisalo":{"Särkisalon hautausmaa":{"name":"Särkisalon hautausmaa","lat":"60.11288449999999","lng":"22.9535316","address":"Kirkkopolku 4"}},"Kemiö":{"Kemiön hautausmaa":{"name":"Kemiön hautausmaa","lat":"60.2184415","lng":"22.8202412","address":"Suomenkulmantie 13"}},"Västanfjärd":{"Västanfjärdin hautausmaa":{"name":"Västanfjärdin hautausmaa","lat":"60.04853360000001","lng":"22.6625815","address":"Kirkkokaari 12"}},"Dragdfjärd":{"Dragsfjärdin hautausmaa":{"name":"Dragsfjärdin hautausmaa","lat":"60.0728749","lng":"22.4726081","address":"Kappelimäentie 5"}},"Hiittinen":{"Hiittisten hautausmaa":{"name":"Hiittisten hautausmaa","lat":"59.8909272","lng":"22.522424","address":"Hiittistentie 2"}},"Somero":{"Someron Vanha hautausmaa":{"name":"Someron Vanha hautausmaa","lat":"60.618345","lng":"23.513263","address":"Kirkkotie 1"},"Somerniemen hautausmaa":{"name":"Somerniemen hautausmaa","lat":"60.61815","lng":"23.513736","address":"Kirkkotie 49"}},"Loimaa":{"Kaupungin hautausmaa":{"name":"Kaupungin hautausmaa","lat":"60.864338","lng":"23.0809662","address":"Tampereentie 174"},"Kanta-Loimaan hautausmaa":{"name":"Kanta-Loimaan hautausmaa","lat":"60.87456649999999","lng":"22.9753085","address":"Kanta-Loimaantie 13"},"Metsämaan hautausmaa":{"name":"Metsämaan hautausmaa","lat":"60.9399031","lng":"23.152286","address":"Metsämaantie 619"}},"Mellilä":{"Mellilän hautausmaa":{"name":"Mellilän hautausmaa","lat":"60.7733423","lng":"22.9600742","address":"Kirkkotie 90"}},"Alastaro":{"Alastaron hautausmaa":{"name":"Alastaron hautausmaa","lat":"60.95553","lng":"22.8620086","address":"Papintie 1"}},"Oripää":{"Oripään hautausmaa":{"name":"Oripään hautausmaa","lat":"60.8599114","lng":"22.687157","address":"Yläneentie 21"}},"Virttaa":{"Virttaan hautausmaa":{"name":"Virttaan hautausmaa","lat":"60.94100679999999","lng":"22.6742011","address":"Virttaanraitti 121"}},"Sastamala":{"Kiikoisten hautausmaa":{"name":"Kiikoisten hautausmaa","lat":"60.6695167","lng":"21.7029473","address":"Kiikoistentie 300"}}},"Keski-Suomi":{"Kuhmoinen":{"Papinsaaren hautausmaa":{"name":"Papinsaaren hautausmaa","lat":"61.55466939999999","lng":"25.184183","address":"Papinsaarentie 69"}},"Joutsa":{"Joutsan hautausmaa":{"name":"Joutsan hautausmaa","lat":"61.7421665","lng":"26.11815","address":"Jousitie 42"}},"Luhanka":{"Luhangan hautausmaa":{"name":"Luhangan hautausmaa","lat":"61.7995159","lng":"25.7043986","address":"Mämminiementie 9"}},"Halli":{"Kuoreveden kirkon hautrausmaat":{"name":"Kuoreveden kirkon hautrausmaat","lat":"61.9325233","lng":"24.7264471","address":"Kirkkoniementie 118"}},"Mänttä":{"Mäntän hautausmaa":{"name":"Mäntän hautausmaa","lat":"62.0235418","lng":"24.6525931","address":"Vuorentie 2"}},"Jyväskylä":{"Lahjaharjun hautausmaa":{"name":"Lahjaharjun hautausmaa","lat":"62.266681","lng":"25.7723111","address":"Ukonniementie 2"},"Mäntykankaan hautausmaa":{"name":"Mäntykankaan hautausmaa","lat":"62.2772513","lng":"25.7936926","address":"Laukaantie 5"},"Jyväskylän Vanha hautausmaa":{"name":"Jyväskylän Vanha hautausmaa","lat":"62.25050049999999","lng":"25.7514595","address":"Puistokatu 20"}},"Korpilahti":{"Korpilahden hautausmaa":{"name":"Korpilahden hautausmaa","lat":"62.01922829999999","lng":"25.547782","address":"Korpiahontie 8"}},"Säynätsalo":{"Säynätsalon hautausmaa":{"name":"Säynätsalon hautausmaa","lat":"62.1432189","lng":"25.7686218","address":"Saarnatie 1"}},"Muurame":{"Muuramen seurakunnan hautausmaa":{"name":"Muuramen seurakunnan hautausmaa","lat":"62.11989319999999","lng":"25.6508473","address":"Kappelintie 4"}},"Tikkakoski":{"Tikkakosken hautausmaa":{"name":"Tikkakosken hautausmaa","lat":"62.3700682","lng":"25.6621964","address":"Autiokankaantie 219"}},"Uurainen":{"Uuraisten hautausmaa":{"name":"Uuraisten hautausmaa","lat":"62.50628339999999","lng":"25.4207589","address":"Haukimäentie 49"}},"Laukaa":{"Laukaan hautausmaa":{"name":"Laukaan hautausmaa","lat":"62.41941600000001","lng":"25.9632568","address":"Jokiniementie 9"}},"Lievestuore":{"Kelkkamäen hautausmaa":{"name":"Kelkkamäen hautausmaa","lat":"62.2483069","lng":"26.1320523","address":"Kelkkamäentie 274"}},"Hankasalmi":{"Hankasalmen vanha hautausmaa":{"name":"Hankasalmen vanha hautausmaa","lat":"62.375632","lng":"26.44159","address":"Keskustie 760"}},"Toivakka":{"Toivakan hautausmaa":{"name":"Toivakan hautausmaa","lat":"62.0992005","lng":"26.0882506","address":"Toivakantie 46"}},"Leivonmäki":{"Leivonmäen hautausmaa":{"name":"Leivonmäen hautausmaa","lat":"61.9126857","lng":"26.1225833","address":"Leivon,äentie 13"}},"Petäjävesi":{"Petäjäveden vanhan kirkon hautausmaa":{"name":"Petäjäveden vanhan kirkon hautausmaa","lat":"62.25017039999999","lng":"25.1839001","address":"Vanhankirkontie 9"}},"Jämsä":{"Miekkapitäjän hautausmaa":{"name":"Miekkapitäjän hautausmaa","lat":"61.8939186","lng":"25.1426236","address":"Pääskysmäentie 411"},"Jämsän vanha hautausmaa":{"name":"Jämsän vanha hautausmaa","lat":"61.8769326","lng":"25.1824253","address":"Koskentie 30"}},"Jämsänkoski":{"Vangonmäen hautausmaa":{"name":"Vangonmäen hautausmaa","lat":"61.9258859","lng":"25.154964","address":"Rauhantie 1"}},"Koskenpää":{"Koskenpään hautausmaa":{"name":"Koskenpään hautausmaa","lat":"62.08350159999999","lng":"25.1451807","address":"Petäjävedentie 5"}},"Multia":{"Multian kirkon hautausmaa":{"name":"Multian kirkon hautausmaa","lat":"62.40727119999999","lng":"24.7906271","address":"Kirkkoraitti 1"}},"Keuruu":{"Keuruun hautausmaa":{"name":"Keuruun hautausmaa","lat":"62.2428242","lng":"24.7228991","address":"Kankurintie 2"}},"Keuruu Haapamäki":{"Haapamäen hautausmaa":{"name":"Haapamäen hautausmaa","lat":"62.2430591","lng":"24.4415804","address":"Riihontie 15-17"}},"Pihlajavesi":{"Pihlajaveden vanha hautausmaa":{"name":"Pihlajaveden vanha hautausmaa","lat":"62.3462997","lng":"24.2869613","address":"Kirkkotie 31"}},"Saarijävi":{"Saarijärven Kirkkohautausmaa":{"name":"Saarijärven Kirkkohautausmaa","lat":"62.70500929999999","lng":"25.2654131","address":"Paavontie 8"},"Kolkanlahden hautausmaa":{"name":"Kolkanlahden hautausmaa","lat":"62.7431692","lng":"25.1727168","address":"Kolkanlahdentie 154 B"},"Saarijärven läntinen hautausmaa":{"name":"Saarijärven läntinen hautausmaa","lat":"62.7051046","lng":"25.2569732","address":"Paavontie 18"}},"Kannonkoski":{"Kannonkosken hautausmaa":{"name":"Kannonkosken hautausmaa","lat":"62.966787","lng":"25.2542899","address":"Kirkkotie 13"}},"Pylkönmäki":{"Pylkönmäen hautausmaa":{"name":"Pylkönmäen hautausmaa","lat":"62.67356280000001","lng":"24.8272716","address":"Kuoppalantie 75"}},"Karstula":{"Karstulan hautausmaa":{"name":"Karstulan hautausmaa","lat":"62.88123439999999","lng":"24.8158765","address":"Humpintie 93"}},"Kyyjärvi":{"Kyyjärven hautausmaa":{"name":"Kyyjärven hautausmaa","lat":"63.0318427","lng":"24.4210722","address":"Vaasantie 190"}},"Kivijärvi":{"Juurikkaharjun hautausmaa":{"name":"Juurikkaharjun hautausmaa","lat":"63.1274641","lng":"25.0690222","address":"Pappilantie 12"},"Kivijärven kirkkohautausmaa":{"name":"Kivijärven kirkkohautausmaa","lat":"63.1211707","lng":"25.0713523","address":"Kirkkotie 1"}},"Kinnula":{"Kinnulan Kirkkomaa":{"name":"Kinnulan Kirkkomaa","lat":"63.366435","lng":"24.9676764","address":"Kirkkotie 2"},"Kylmäkangas":{"name":"Kylmäkangas","lat":"61.6333333","lng":"25.3999999","address":"Rikantie 13"}},"Äänekoski":{"Äänekosken kirkon hautausmaa":{"name":"Äänekosken kirkon hautausmaa","lat":"62.6090178","lng":"25.7264507","address":"Vellamontie 1a"}},"Hietama":{"Hietaman hautausmaa":{"name":"Hietaman hautausmaa","lat":"62.59206569999999","lng":"25.6029799","address":"Saarijärventie 441"}},"Suolahti":{"Suolahden hautausmaa":{"name":"Suolahden hautausmaa","lat":"62.5540837","lng":"25.9123907","address":"Äänekoskentie 1566"}},"Sumiainen":{"Sumiaisten hautausmaa":{"name":"Sumiaisten hautausmaa","lat":"62.65522319999999","lng":"26.0485847","address":"Sumiaisraitti"}},"Konnevesi":{"Konneveden hautausmaa":{"name":"Konneveden hautausmaa","lat":"62.6384393","lng":"26.3252026","address":"Myllyntie 65"}},"Konginkangas":{"Konginkankaan hautausmaa":{"name":"Konginkankaan hautausmaa","lat":"62.7774614","lng":"25.8083035","address":"Kirkkotie 5"}},"Viitasaari":{"Viitasaaren hautausmaa":{"name":"Viitasaaren hautausmaa","lat":"63.0681731","lng":"25.861881","address":"Vanha Kirkkosaari"},"Haapasaaren hautausmaa":{"name":"Haapasaaren hautausmaa","lat":"63.0730908","lng":"25.8501632","address":"Kirkkotie 14"},"Hiekan hautausmaa":{"name":"Hiekan hautausmaa","lat":"63.0826514","lng":"25.8348877","address":"Kappelintie 27"}},"Pihtipudas":{"Pihtiputaan Kirkonkylän hautausmaa":{"name":"Pihtiputaan Kirkonkylän hautausmaa","lat":"63.36995770000001","lng":"25.5715968","address":"Sallilantie 5"},"Muurasjärven hautausmaa":{"name":"Muurasjärven hautausmaa","lat":"63.4696861","lng":"25.3312962","address":"Reisjärventie"}},"Perho":{"Perhon hautausmaa":{"name":"Perhon hautausmaa","lat":"63.2150131","lng":"24.4147375","address":"Sahintie 3"}}},"Etelä-Savo":{"Pertunmaa":{"Pertunmaan uusi hautausmaa":{"name":"Pertunmaan uusi hautausmaa","lat":"61.48872549999999","lng":"26.4684355","address":"Kirkkotie"},"Pertunmaa Vanha hautausmaa":{"name":"Pertunmaa Vanha hautausmaa","lat":"61.5065785","lng":"26.481711","address":"Pertuntie 26"},"Pyöröharjun hautausmaa":{"name":"Pyöröharjun hautausmaa","lat":"61.4606339","lng":"26.4572608","address":"Kuortintie 121"}},"Mikkeli":{"Rouhialan hautausmaa":{"name":"Rouhialan hautausmaa","lat":"61.7005076","lng":"27.2658979","address":"Rouhialankatu 52"}},"Kangasniemi":{"Kangasniemen vanha hautausmaa":{"name":"Kangasniemen vanha hautausmaa","lat":"61.98947399999999","lng":"26.6522797","address":"Kirkkoniementie 2"}},"Haukivuori":{"Haukivuoren hautausmaa":{"name":"Haukivuoren hautausmaa","lat":"61.9926616","lng":"27.1678742","address":"Kirkontie 291"}},"Juva":{"Juvan hautausmaa":{"name":"Juvan hautausmaa","lat":"61.8988714","lng":"27.8541473","address":"Juvantie 19"}},"Anttola":{"Anttolan hautausmaa":{"name":"Anttolan hautausmaa","lat":"61.58623799999999","lng":"27.6461985","address":"Kanervatie 6"}},"Puumala":{"Puumalan hautausmaa":{"name":"Puumalan hautausmaa","lat":"61.52487850000001","lng":"28.1758898","address":"Kirkkotie 1"}},"Hirvensalmi":{"Hirvensalmen hautausmaa":{"name":"Hirvensalmen hautausmaa","lat":"61.6393582","lng":"26.7800832","address":"Kirkkotie 3"}},"Mäntyharju":{"Mäntyharjun uusi hautausmaa":{"name":"Mäntyharjun uusi hautausmaa","lat":"61.4186513","lng":"26.8551434","address":"Mäntyharjuntie 77"}},"Suomenniemi":{"Suomenniemen hautausmaa":{"name":"Suomenniemen hautausmaa","lat":"61.31115149999999","lng":"27.4662346","address":"Suomenkyläntie 12"}},"Savonlinna":{"Ahvensalmen hautausmaa":{"name":"Ahvensalmen hautausmaa","lat":"61.8706043","lng":"28.8670351","address":"Rauvantaipaleent. 308"}},"Kerimäki":{"Kerimäen uusi ja vanha hautausmaa":{"name":"Kerimäen uusi ja vanha hautausmaa","lat":"61.9131188","lng":"29.2751883","address":"Koulutie 2A"}},"Punkaharju":{"Punkaharjun Vuoriniemen hautausmaa":{"name":"Punkaharjun Vuoriniemen hautausmaa","lat":"61.48490400000001","lng":"29.075925","address":"Särkilähdentie 1535"},"Punkaharjun vanha hautausmaa":{"name":"Punkaharjun vanha hautausmaa","lat":"61.7602382","lng":"29.397927","address":"Kirkkotie 10"}},"Sulkava":{"Sulkavan vanha hautausmaa":{"name":"Sulkavan vanha hautausmaa","lat":"61.7952725","lng":"28.3603555","address":"Kirkkotie 17"}},"Rantasalmi":{"Rantasalmen uusi ja vanha hautausmaa":{"name":"Rantasalmen uusi ja vanha hautausmaa","lat":"62.0650625","lng":"28.2997054","address":"Kappelitie 6"}},"Pieksämäki":{"Hiekkapuron hautausmaa":{"name":"Hiekkapuron hautausmaa","lat":"62.2952135","lng":"27.1432433","address":"Saattokuja 4"}},"Jäppilä":{"Jäppilän hautausmaa":{"name":"Jäppilän hautausmaa","lat":"62.381775","lng":"27.4298532","address":"Kirkkotie 20"}},"Joroinen":{"Joroisten Kirkonkylän hautausmaa":{"name":"Joroisten Kirkonkylän hautausmaa","lat":"62.17974169999999","lng":"27.8329309","address":"Kotkanlahdentie 72"}},"Heinävesi":{"Heinävesi Kirkonmäen hautausmaa":{"name":"Heinävesi Kirkonmäen hautausmaa","lat":"62.43053959999999","lng":"28.629596","address":"Kirkkotie 16"},"Petäjäharjun hautausmaa":{"name":"Petäjäharjun hautausmaa","lat":"62.4260556","lng":"28.6049776","address":"Varkaudentie 13"}},"Palokki":{"Palokin uusi hautausmaa":{"name":"Palokin uusi hautausmaa","lat":"62.563546","lng":"28.587133","address":"Luostaritie 72"},"Palokin vanha hautausmaa":{"name":"Palokin vanha hautausmaa","lat":"62.565652","lng":"28.580478","address":"Luostaritie 75"}},"Etelä-Petrua":{"Petruman hautausmaa":{"name":"Petruman hautausmaa","lat":"62.47209340000001","lng":"28.8552","address":"Petrumantie 142"}}},"Ahvenanmaa":{"Maarianhamina":{"Maarianhaminan hautausmaa":{"name":"Maarianhaminan hautausmaa","lat":"60.0970945","lng":"19.9348339","address":"Maarianhamina 22100"}}},"Satakunta":{"Rauma":{"Rauman vanha hautausmaa":{"name":"Rauman vanha hautausmaa","lat":"61.1257175","lng":"21.5213981","address":"Kaunisjärvenkatu 4"},"Lapin hautausmaa":{"name":"Lapin hautausmaa","lat":"61.10456780000001","lng":"21.82704","address":"Kirkkotie 23"}},"Eurajoki":{"Eurajoen hautausmaa":{"name":"Eurajoen hautausmaa","lat":"61.21938729999999","lng":"21.7636011","address":"Kirkkotie 8"}},"Kodisjoki":{"Kodisjoen hautausmaa":{"name":"Kodisjoen hautausmaa","lat":"61.0979822","lng":"21.5545557","address":"Kodisjoentie 1445"}},"Kiukainen":{"Kiukaisten uusi hautausmaa":{"name":"Kiukaisten uusi hautausmaa","lat":"61.79932239999999","lng":"22.4052136","address":"Kappelinkuja 11"}},"Panelia":{"Panelian hautausmaa":{"name":"Panelian hautausmaa","lat":"61.25004","lng":"21.9533278","address":"Paneliantie 20"}},"Eura":{"Euran kirkonviereinen hautausmaa":{"name":"Euran kirkonviereinen hautausmaa","lat":"61.13998959999999","lng":"22.122793","address":"Sorkkistentie 5"}},"Honkilahti":{"Honkilahden hautausmaa":{"name":"Honkilahden hautausmaa","lat":"60.9674426","lng":"22.114749","address":"Kirjonahteentie 7"}},"Köyliö":{"Köyliön hautausmaa":{"name":"Köyliön hautausmaa","lat":"61.1208549","lng":"22.3459405","address":"Kirkkosaarentie 217"}},"Säkylä":{"Uudenkylän hautausmaa":{"name":"Uudenkylän hautausmaa","lat":"61.061446","lng":"22.2915812","address":"Rantatie 472"}},"Pori":{"Ahlaisten vanha ja uusi hautausmaa":{"name":"Ahlaisten vanha ja uusi hautausmaa","lat":"61.5981784","lng":"21.8704948","address":"Katavistonkuja"},"Noormarkun hautausmaa":{"name":"Noormarkun hautausmaa","lat":"61.59775999999999","lng":"21.8628419","address":"Vanha Vaasantie 1"},"Pomarkun hautausmaa":{"name":"Pomarkun hautausmaa","lat":"61.69266159999999","lng":"22.0121074","address":"Kirkkokuja 2"},"Käppärän hautausmaa":{"name":"Käppärän hautausmaa","lat":"61.48777029999999","lng":"21.7588579","address":"Maantiekatu 36"},"Lavian hautausmaa":{"name":"Lavian hautausmaa","lat":"61.5949335","lng":"22.5986807","address":"Kirkkopolku 18"}},"Vanha-Ulvila":{"Ulvilan uusi hautausmaa":{"name":"Ulvilan uusi hautausmaa","lat":"61.426046","lng":"21.9008559","address":"Hautausmaantie 22"}},"Luvia":{"Luvian hautausmaa":{"name":"Luvian hautausmaa","lat":"61.36166309999999","lng":"21.6254274","address":"Luvian kirkkotie 22"}},"Harjavalta":{"Harjavallan hautausmaa":{"name":"Harjavallan hautausmaa","lat":"61.31579499999999","lng":"22.1459928","address":"Kirkkokatu 3"}},"Nakkila":{"Nakkilan hautausmaa":{"name":"Nakkilan hautausmaa","lat":"61.3683518","lng":"22.0043605","address":"Kirkkokatu 4"}},"Kullaa":{"Kullaan hautausmaa":{"name":"Kullaan hautausmaa","lat":"61.47167950000001","lng":"22.1536322","address":"Harjulantie 88"}},"Siikainen":{"Siikaisten vanha ja uusi hautausmaa":{"name":"Siikaisten vanha ja uusi hautausmaa","lat":"61.8766697","lng":"21.8215758","address":"Kirkkotie 1"}},"Merikarvia":{"Merikarvian hautausmaa":{"name":"Merikarvian hautausmaa","lat":"61.85872550000001","lng":"21.5050557","address":"Kauppatir 52"}},"Vampula":{"Vampulan hautausmaa":{"name":"Vampulan hautausmaa","lat":"61.0241104","lng":"22.7010363","address":"Sallilantie 74"}},"Huittinen":{"Huittisten hautausmaa":{"name":"Huittisten hautausmaa","lat":"61.1806425","lng":"22.6894408","address":"Kirkkotie"},"Huhtamon hautausmaa":{"name":"Huhtamon hautausmaa","lat":"61.0724309","lng":"22.9328347","address":"Kangastie 1454"}},"Kokemäki":{"Kokemäen kirkon hautausmaa":{"name":"Kokemäen kirkon hautausmaa","lat":"61.2615944","lng":"22.3535479","address":"Tulkkilantie 21"},"Kokemäen vanha hautausmaa":{"name":"Kokemäen vanha hautausmaa","lat":"61.26078039999999","lng":"22.3556972","address":"Kakkulaistentie 1"}},"Kauvatsa":{"Kauvatsan hautausmaa":{"name":"Kauvatsan hautausmaa","lat":"61.3367837","lng":"22.5034891","address":"Kirkkotie 47"}},"Kankaanpää":{"Kankaanpään hautausmaa":{"name":"Kankaanpään hautausmaa","lat":"61.8055635","lng":"22.3884848","address":"Kappelikatu 19"}},"Honkajoki":{"Honkajoen hautausmaa":{"name":"Honkajoen hautausmaa","lat":"61.9925408","lng":"22.2650558","address":"Kauppatie 2"}},"Karvia":{"Karvian Kappelihautausmaa":{"name":"Karvian Kappelihautausmaa","lat":"62.13252660000001","lng":"22.5706684","address":"Kotonevantie"},"Karvian Kirkkohautausmaa":{"name":"Karvian Kirkkohautausmaa","lat":"62.1351592","lng":"22.5608214","address":"Kyläkarviantie 10"}}},"Pirkanmaa":{"Urjala":{"Urjalan hautausmaa":{"name":"Urjalan hautausmaa","lat":"61.07637510000001","lng":"23.5686685","address":"Urjalantie 12"}},"Punkanlaidun":{"Punkalaitumen hautausmaa":{"name":"Punkalaitumen hautausmaa","lat":"61.1145012","lng":"23.0961644","address":"Lauttakyläntie 20"}},"Tampere":{"Kalevankankaan hautausmaa":{"name":"Kalevankankaan hautausmaa","lat":"61.4941253","lng":"23.7944212","address":"Hautausmaankatu 5"},"Lamminpään hautausmaa":{"name":"Lamminpään hautausmaa","lat":"61.5221943","lng":"23.621885","address":"Hauhantie 21"},"Aitolahden hautausmaa":{"name":"Aitolahden hautausmaa","lat":"61.5460922","lng":"23.8895532","address":"Aitoniementie 268"},"Messukylän hautausmaa":{"name":"Messukylän hautausmaa","lat":"61.48377","lng":"23.8482119","address":"Messukylänkatu 54"}},"Kangasala":{"Vatialan hautausmaa":{"name":"Vatialan hautausmaa","lat":"61.4748977","lng":"23.9689819","address":"Kappelinkierto 3"},"Kangasalan vanha hautausmaa":{"name":"Kangasalan vanha hautausmaa","lat":"61.4629592","lng":"24.0703387","address":"Ainontie 1"},"Huutijärven hautausmaa":{"name":"Huutijärven hautausmaa","lat":"61.45298","lng":"24.1058413","address":"Jokioistentie 12"}},"Yläjärvi":{"Ylöjärven hautausmaa":{"name":"Ylöjärven hautausmaa","lat":"61.558031","lng":"23.5950549","address":"Kirkkotanhuantie 1"}},"Pirkkala":{"Pirkkalan hautausmaa":{"name":"Pirkkalan hautausmaa","lat":"61.4603265","lng":"23.5677995","address":"Anian rantatie 226"}},"Terälahti":{"Teiskon hautausmaa":{"name":"Teiskon hautausmaa","lat":"61.673206","lng":"23.847911","address":"Teiskon kirkkotie 114"}},"Murole":{"Muroleen hautausmaa":{"name":"Muroleen hautausmaa","lat":"61.83916119999999","lng":"23.981128","address":"Muroleentie 740"}},"Ruovesi":{"Ruoveden hautausmaa":{"name":"Ruoveden hautausmaa","lat":"61.9852983","lng":"24.0772401","address":"Kirkkotie 1"}},"Virrat":{"Virtain uusi hautausmaa":{"name":"Virtain uusi hautausmaa","lat":"62.2384517","lng":"23.8072778","address":"Lakarintie 1"}},"Liedenpohja":{"Liedenpohjan hautausmaa":{"name":"Liedenpohjan hautausmaa","lat":"62.381713","lng":"23.6600466","address":"Hollitie 992"}},"Killinkoski":{"Killinkosken hautausmaa":{"name":"Killinkosken hautausmaa","lat":"62.3928813","lng":"23.8814572","address":"Inkantie 2"}},"Eräjärvi":{"Eräjärven hautausmaa":{"name":"Eräjärven hautausmaa","lat":"61.5799276","lng":"24.5579491","address":"Eräjärventie 1592"}},"Orivesi":{"Oriveden hautausmaa":{"name":"Oriveden hautausmaa","lat":"61.6736861","lng":"24.3579852","address":"Keskustie 17"}},"Längelmäki":{"Längelmäen hautausmaa":{"name":"Längelmäen hautausmaa","lat":"61.66629459999999","lng":"24.7232144","address":"Längelmäen kirkkotie 565"}},"Juupajoki":{"Juupajoen hautausmaa":{"name":"Juupajoen hautausmaa","lat":"61.78201259999999","lng":"24.4601598","address":"Kopsamontie 246"}},"Vilppula":{"Vilppulan hautausmaa":{"name":"Vilppulan hautausmaa","lat":"62.01248380000001","lng":"24.4832102","address":"Riihikaantie 14"}},"Sahalahti":{"Sahalahden hautausmaa":{"name":"Sahalahden hautausmaa","lat":"61.4740803","lng":"24.3303748","address":"Vanha Pakkalantie 35"}},"Pälkäne":{"Pälkäneen puistohautausmaa":{"name":"Pälkäneen puistohautausmaa","lat":"61.3480721","lng":"24.2418899","address":"Onkkaalantie"},"Pälkäneen sankarihautausmaa":{"name":"Pälkäneen sankarihautausmaa","lat":"61.3381542","lng":"24.2689242","address":"Onkkaalantie 81"}},"Luopioinen":{"Luopioisten hautausmaa":{"name":"Luopioisten hautausmaa","lat":"61.36228430000001","lng":"24.6551884","address":"Keskitie 13"}},"Kuhmalahti":{"Kuhmalahden hautausmaa":{"name":"Kuhmalahden hautausmaa","lat":"61.5038558","lng":"24.5665567","address":"Kirkkotie 45"}},"Vehkajärvi":{"Vehkajärven hautausmaa":{"name":"Vehkajärven hautausmaa","lat":"61.5064991","lng":"24.8307235","address":"Kuusisentie 8"}},"Nokia":{"Nokian keskustan hautausmaat":{"name":"Nokian keskustan hautausmaat","lat":"61.47643249999999","lng":"23.5204604","address":"Pirkkalaistie 22"}},"Vesilahti":{"Vesilahden hautausmaa":{"name":"Vesilahden hautausmaa","lat":"61.3107124","lng":"23.6203356","address":"Rautialantie 208"}},"Lempäälä":{"Lempäälän Kirkkohautausmaa":{"name":"Lempäälän Kirkkohautausmaa","lat":"61.31353230000001","lng":"23.7515018","address":"Kirkkopolku 1"},"Ristimäen hautausmaa":{"name":"Ristimäen hautausmaa","lat":"61.29936420000001","lng":"23.800331","address":"Sotavallantie 86"}},"Valkeakoski":{"Valkeakosken hautausmaa":{"name":"Valkeakosken hautausmaa","lat":"61.2608377","lng":"24.0374737","address":"Kangaskatu"}},"Sääksmäki":{"Sääksmäen hautausmaa":{"name":"Sääksmäen hautausmaa","lat":"61.2002415","lng":"24.0679945","address":"Kirkkovainiontie"}},"Akaa":{"Akaan hautausmaa":{"name":"Akaan hautausmaa","lat":"61.1649117","lng":"23.8581201","address":"Jussintie 8"},"Viialan hautausmaa":{"name":"Viialan hautausmaa","lat":"61.2135874","lng":"23.7619766","address":"Nordintie"},"Kylmäkosken hautausmaa":{"name":"Kylmäkosken hautausmaa","lat":"61.16217039999999","lng":"23.6891745","address":"Kylmäkoskentie 137"}},"Sastamala":{"Karkun hautausmaa":{"name":"Karkun hautausmaa","lat":"61.41643089999999","lng":"23.0110055","address":"Riippiläntie 366"},"Keikyän hautausmaa":{"name":"Keikyän hautausmaa","lat":"61.2720102","lng":"22.7005024","address":"Akuntie 7"},"Tyrvään kappelihautausmaa":{"name":"Tyrvään kappelihautausmaa","lat":"61.3052949","lng":"22.9195847","address":"Virkatie 9"},"Tyrvään kirkkohautausmaa":{"name":"Tyrvään kirkkohautausmaa","lat":"61.3437751","lng":"22.9029173","address":"Kirkkotie 1"},"Kiikan hautausmaa":{"name":"Kiikan hautausmaa","lat":"61.32124309999999","lng":"22.7761342","address":"Kiikanojantie 8"},"Mouhijärven hautausmaa":{"name":"Mouhijärven hautausmaa","lat":"61.50805709999999","lng":"23.0237432","address":"Kinkerikuja 3"},"Suodenniemen hautausmaa":{"name":"Suodenniemen hautausmaa","lat":"61.5593423","lng":"22.7801252","address":"Koippurintie 9"},"Suodenniemen vanha hautausmaa":{"name":"Suodenniemen vanha hautausmaa","lat":"61.3376032","lng":"22.9184987","address":"Kirkkolahdentie 1"}},"Hämeenkyrö":{"Hämeenkyrön vanha hautausmaa":{"name":"Hämeenkyrön vanha hautausmaa","lat":"61.63245699999999","lng":"23.1943552","address":"Kappelikuja 6"}},"Kyröskoski":{"Mäntyrinteen hautausmaa":{"name":"Mäntyrinteen hautausmaa","lat":"61.65993390000001","lng":"23.2517151","address":"Lintuharjuntie 130"}},"Viljakkala":{"Viljakkalan hautausmaa":{"name":"Viljakkalan hautausmaa","lat":"61.7081776","lng":"23.2745242","address":"Kirkkokuja 14"}},"Ikaalinen":{"Ikaalisten Eteläinen hautausmaa":{"name":"Ikaalisten Eteläinen hautausmaa","lat":"61.7646172","lng":"23.0747767","address":"Pilvilinnankatun 1"},"Pohjoinen hautausmaa":{"name":"Pohjoinen hautausmaa","lat":"61.77153239999999","lng":"23.0622906","address":"Vanha Tampereent. 6"}},"Parkano":{"Parkanon keskustan hautausmaa":{"name":"Parkanon keskustan hautausmaa","lat":"62.01172529999999","lng":"23.0242654","address":"Kirkkopolku"}},"Lapinneva":{"Harjun hautausmaa":{"name":"Harjun hautausmaa","lat":"61.97510750000001","lng":"22.9428529","address":"Kappelitie"}},"Kihniö":{"Kihniön hautausmaa":{"name":"Kihniön hautausmaa","lat":"62.1970822","lng":"23.1898353","address":"Kuruntie 110"}}},"Kymenlaakso":{"Kouvola":{"Kouvolan vanha hautausmaa":{"name":"Kouvolan vanha hautausmaa","lat":"60.87296629999999","lng":"26.6745195","address":"Kasarminkatu 45"},"Jaalan hautausmaa":{"name":"Jaalan hautausmaa","lat":"61.05015520000001","lng":"26.4919518","address":"Jaalantie 140"}},"Utti":{"Lepolan hautausmaa":{"name":"Lepolan hautausmaa","lat":"60.88602590000001","lng":"26.8642645","address":"Kuutostie 395"}},"Valkeala":{"Valkealan kirkkomaa":{"name":"Valkealan kirkkomaa","lat":"60.94236069999999","lng":"26.7980843","address":"Kalevantie 5"}},"Koria":{"Korian hautausmaa":{"name":"Korian hautausmaa","lat":"60.8843046","lng":"26.6028133","address":"Helsingintie 483"}},"Kuusankoski":{"Kuusankosken uusi hautausmaa":{"name":"Kuusankosken uusi hautausmaa","lat":"60.90569670000001","lng":"26.5819047","address":"Pohjankorventie 13"},"Kuusankosken vanha hautausmaa":{"name":"Kuusankosken vanha hautausmaa","lat":"60.9176388","lng":"26.6159647","address":"Lepokuja 4"}},"Sippola":{"Sippolan alahautausmaa":{"name":"Sippolan alahautausmaa","lat":"60.7592951","lng":"26.9744498","address":"Silmuntie 1"},"Sippolan aylähautausmaa":{"name":"Sippolan aylähautausmaa","lat":"60.76787090000001","lng":"27.036903","address":"Sippolantie 16"},"Hirvelän hautausmaa":{"name":"Hirvelän hautausmaa","lat":"60.76183369999999","lng":"27.0317291","address":"Hirvelänkuja 20"}},"Anjala":{"Anjalan hautausmaa":{"name":"Anjalan hautausmaa","lat":"60.6901543","lng":"26.7908064","address":"Hautausmaantie 4"}},"Inkeroinen":{"Karhunkankaan hautausmaa":{"name":"Karhunkankaan hautausmaa","lat":"60.7232881","lng":"26.829587","address":"Karhunkankaantie 29"}},"Muhniemi":{"Muhniemen hautausmaa":{"name":"Muhniemen hautausmaa","lat":"60.69336419999999","lng":"26.7028746","address":"Kappelitie 62"}},"Myllykoski":{"Välikankaan hautausmaa":{"name":"Välikankaan hautausmaa","lat":"60.8008446","lng":"26.8260531","address":"Aitomäentie 141"}},"Elimäki":{"Elimäen kirkkotarha":{"name":"Elimäen kirkkotarha","lat":"60.72042380000001","lng":"26.4438612","address":"Kiviaidantie 3"}},"Iitti":{"Iitin Uusi hautausmaa":{"name":"Iitin Uusi hautausmaa","lat":"60.9370269","lng":"26.4034765","address":"Iitintie 825"},"Iitin Vanha hautausmaa":{"name":"Iitin Vanha hautausmaa","lat":"60.9116799","lng":"26.3560383","address":"Iitintie 846"}},"Kotka":{"Kotkan vanha hautausmaa":{"name":"Kotkan vanha hautausmaa","lat":"60.4938819","lng":"26.8994806","address":"Kotkantie 60"},"Helilän hautausmaa":{"name":"Helilän hautausmaa","lat":"60.5229031","lng":"26.9297318","address":"Suntionkatu 18"},"Kymin vanha hautausmaa":{"name":"Kymin vanha hautausmaa","lat":"60.528242","lng":"26.9203764","address":"Karhulantie 77"}},"Pyhtää":{"Haaviston hautausmaa":{"name":"Haaviston hautausmaa","lat":"60.6119843","lng":"26.5806041","address":"Korteniityntie 82"}},"Hamina":{"Hietakylän Hautausmaa":{"name":"Hietakylän Hautausmaa","lat":"60.5687324","lng":"27.185498","address":"Laivasillankatu 3"}},"Miehikkälä":{"Miehikkälän hautausmaa":{"name":"Miehikkälän hautausmaa","lat":"60.674356","lng":"27.7034835","address":"Muurikkalantie 6"}},"Virolahti":{"Virolahden hautausmaa":{"name":"Virolahden hautausmaa","lat":"60.5092684","lng":"27.6875481","address":"Kirkontie 500"}}},"Etelä-Karjala":{"Lappeenranta":{"Lappeenrannan vanha hautausmaa":{"name":"Lappeenrannan vanha hautausmaa","lat":"61.051382","lng":"28.1919158","address":"Kauppakatu 73"},"Ristikankaan hautausmaa":{"name":"Ristikankaan hautausmaa","lat":"61.0437436","lng":"28.1756251","address":"Lavolankatu 17"}},"Joutseno":{"Joutsenon hautausmaat":{"name":"Joutsenon hautausmaat","lat":"61.11770629999999","lng":"28.5052212","address":"Lappeentie 1"}},"Ylämaa":{"Ylämaan hautausmaa":{"name":"Ylämaan hautausmaa","lat":"60.7930073","lng":"28.0410108","address":"Leinontie 61"}},"Luumäki":{"Taavetin hautausmaa":{"name":"Taavetin hautausmaa","lat":"60.9191393","lng":"27.5616425","address":"Rauhantie 20"}},"Lemi":{"Lemin hautausmaa":{"name":"Lemin hautausmaa","lat":"61.06072169999999","lng":"27.8062197","address":"Iitiäntie 1"}},"Savitaipale":{"Savitaipaleen vanha hautausmaa":{"name":"Savitaipaleen vanha hautausmaa","lat":"61.2009631","lng":"27.6861536","address":"Nikkarintie"}},"Taipalsaari":{"Taipalsaaren hautausmaa":{"name":"Taipalsaaren hautausmaa","lat":"61.159214","lng":"28.0702961","address":"Niiraskantie 3"}},"Imatra":{"Imatran hautausmaa":{"name":"Imatran hautausmaa","lat":"61.1922087","lng":"28.752844","address":"Asemäentie 43"}},"Ruokolahti":{"Ruokolahden kirkko":{"name":"Ruokolahden kirkko","lat":"61.28439719999999","lng":"28.8302587","address":"Ukonsalmentie 5"}},"Rautjärvi":{"Rautjärven hautausmaa":{"name":"Rautjärven hautausmaa","lat":"61.29990230000001","lng":"29.1329202","address":"Miettiläntie 1758"}},"Simpele":{"Simpeleen hautausmaa":{"name":"Simpeleen hautausmaa","lat":"61.4380755","lng":"29.3958412","address":"Hautausmaankatu"}},"Parikkala":{"Parikkalan hautausmaa":{"name":"Parikkalan hautausmaa","lat":"61.54523939999999","lng":"29.4991606","address":"Parikkalantie 52"}}},"Pohjois-Karjala":{"Kesälahti":{"Kesälahden hautausmaa":{"name":"Kesälahden hautausmaa","lat":"61.8849013","lng":"29.8408283","address":"Taipaleentie 9"}},"Nurmes":{"Nurmeksen hautausmaa":{"name":"Nurmeksen hautausmaa","lat":"63.55662179999999","lng":"29.08824569999999","address":"Löytörinne 1"},"Porokylän hautausmaa":{"name":"Porokylän hautausmaa","lat":"63.5557075","lng":"29.1098137","address":"Pitkämäentie 1-3"}},"Höljäkkä":{"Höljäkän-Porosaaren hautausmaa":{"name":"Höljäkän-Porosaaren hautausmaa","lat":"63.46362489999999","lng":"29.4259874","address":"Mäntyläntie 7"}},"Valtimo":{"Valtimon hautausmaa":{"name":"Valtimon hautausmaa","lat":"63.6784659","lng":"28.818738","address":"Kunnantie 6"},"Valtimo ort. Hautausmaa":{"name":"Valtimo ort. Hautausmaa","lat":"63.6866072","lng":"28.8048793","address":"Lokkiharjuntie 42"}},"Joensuu":{"Joensuun hautausmaa":{"name":"Joensuun hautausmaa","lat":"62.61010539999999","lng":"29.76858319999999","address":"Rauhankatu 4"},"Kettuvaaran hautausmaa":{"name":"Kettuvaaran hautausmaa","lat":"62.6007499","lng":"29.7955853","address":"80260 Joensuu"},"Joensuu ort. Hautausmaa":{"name":"Joensuu ort. Hautausmaa","lat":"62.6055625","lng":"29.7636939","address":"Rauhankatu 4"},"Tuupovaaran hautausmaa":{"name":"Tuupovaaran hautausmaa","lat":"62.4764236","lng":"30.6201215","address":"Ristolantie"}},"Hammaslahti":{"Pyhäselän hautausmaa":{"name":"Pyhäselän hautausmaa","lat":"62.46436790000001","lng":"29.9490673","address":"Suhmurantie 33"}},"Kontiolahti":{"Kontiolahden vanha hautausmaa":{"name":"Kontiolahden vanha hautausmaa","lat":"62.7555595","lng":"29.8486751","address":"Keskuskatu 42"},"Kontiolahden Keskimmäinen hautausmaa":{"name":"Kontiolahden Keskimmäinen hautausmaa","lat":"62.77720799999999","lng":"29.8509785","address":"Kirkonkyläntie 2"},"Kontiolahden Kappelihautausmaa":{"name":"Kontiolahden Kappelihautausmaa","lat":"62.7763955","lng":"29.8512603","address":"Kirkonkyläntie 4"}},"Eno":{"Enon hautausmaa":{"name":"Enon hautausmaa","lat":"62.7934832","lng":"30.1671524","address":"Kirkkotie 12"}},"Lieksa":{"Mähkön hautausmaa":{"name":"Mähkön hautausmaa","lat":"63.307943","lng":"30.0698192","address":"Kirkkotarhantie 12"},"Lieksa ort. Hautausmaa":{"name":"Lieksa ort. Hautausmaa","lat":"63.3171586","lng":"30.0366755","address":"Iljankatu 14"}},"Koli":{"Kolin hautausmaa":{"name":"Kolin hautausmaa","lat":"63.13886509999999","lng":"29.8245785","address":"Merilänrannantie 58"}},"Viekijärvi":{"Viekin hautausmaa":{"name":"Viekin hautausmaa","lat":"63.4851882","lng":"29.6194663","address":"Kannelkoskentie 10"}},"Vuonislahti":{"Vuonislahden hautausmaa":{"name":"Vuonislahden hautausmaa","lat":"63.15076939999999","lng":"29.988875","address":"Vuonislahti 81590"}},"Kiihtelysvaara":{"Kiihtelysvaaran hautausmaa":{"name":"Kiihtelysvaaran hautausmaa","lat":"62.4834121","lng":"30.2366512","address":"Kiihtelystie 107"}},"Rääkkylä":{"Rääkkylän hautausmaa":{"name":"Rääkkylän hautausmaa","lat":"62.3161059","lng":"29.6454465","address":"Saviniementie 4"}},"Kitee":{"Ilmolan hautausmaa":{"name":"Ilmolan hautausmaa","lat":"62.09095439999999","lng":"30.1612929","address":"Ilmolantie 5"},"Kiteen kirkkotarha":{"name":"Kiteen kirkkotarha","lat":"62.0739212","lng":"30.1639844","address":"Savikontie 5"},"Palomäen hautausmaa":{"name":"Palomäen hautausmaa","lat":"62.0939353","lng":"30.1457183","address":"Kappelintie 65"}},"Tohmajärvi":{"Kirkkoniemen Kirkkomaa":{"name":"Kirkkoniemen Kirkkomaa","lat":"62.1934413","lng":"30.3780891","address":"Kirkkotie 550"},"Tohmajärven vanha hautausmaa":{"name":"Tohmajärven vanha hautausmaa","lat":"62.2120038","lng":"30.3624428","address":"Kirkkotie 554"}},"Vätsilä":{"Kaustajärven hautausmaa":{"name":"Kaustajärven hautausmaa","lat":"62.317045","lng":"30.7053847","address":"Kaustajärventie 162"}},"Ilomantsi":{"Pötökankaan hautausmaa, Ilomantsi":{"name":"Pötökankaan hautausmaa, Ilomantsi","lat":"62.683425","lng":"30.941025","address":"Enontie 2"},"Kivilahden hautausmaa":{"name":"Kivilahden hautausmaa","lat":"62.99583","lng":"30.692876","address":"Vinkarintie"},"Ilomantsi ort. Hautausmaa":{"name":"Ilomantsi ort. Hautausmaa","lat":"62.6781873","lng":"30.9171698","address":"Kirkkotie 17"}},"Liperi":{"Liperin kirkon hautausmaa":{"name":"Liperin kirkon hautausmaa","lat":"62.5283977","lng":"29.3858977","address":"Heinävedentie 3"},"Viinijärven hautausmaa":{"name":"Viinijärven hautausmaa","lat":"62.6651183","lng":"29.1711962","address":"Viinirannantie 6"}},"Kuusjärvi":{"Kuusjärven hautausmaa":{"name":"Kuusjärven hautausmaa","lat":"62.6988364","lng":"28.9211662","address":"Kirkkotie 3"}},"Polvijärvi":{"Martonvaaran hautausmaa":{"name":"Martonvaaran hautausmaa","lat":"62.9626723","lng":"29.3529588","address":"Juuantie 267"}},"Outokumpu":{"Rauhanmaan Hautausmaa":{"name":"Rauhanmaan Hautausmaa","lat":"62.7110629","lng":"28.9564859","address":"Jyrinmäentie 9"}},"Juuka":{"Juuan ev.lut seurakunnan hautausmaa":{"name":"Juuan ev.lut seurakunnan hautausmaa","lat":"63.24266240000001","lng":"29.2565466","address":"Sairaalatie 21"},"Juuka ort. Hautausmaa":{"name":"Juuka ort. Hautausmaa","lat":"63.24316930000001","lng":"29.258089","address":"Kokkokalliontie 3"}}},"Etelä-Pohjanmaa":{"Seinäjoki":{"Törnävän hautausmaa":{"name":"Törnävän hautausmaa","lat":"62.7776604","lng":"22.8551417","address":"Ruukintie 163"}},"Nurmo":{"Nurmon hautausmaa":{"name":"Nurmon hautausmaa","lat":"62.8390284","lng":"22.9057398","address":"Nurmonjoentie 17"}},"Ilmajoki":{"Ilmajoen hautausmaa":{"name":"Ilmajoen hautausmaa","lat":"62.7269665","lng":"22.5636368","address":"Kirkkotie 18"}},"Peräseinäjoki":{"Peräseinäjoen sankarihautausmaa":{"name":"Peräseinäjoen sankarihautausmaa","lat":"62.56509739999999","lng":"23.0793806","address":"Kirkkotie 2"}},"Ylistaro":{"Ylistaron hautausmaa":{"name":"Ylistaron hautausmaa","lat":"62.9507259","lng":"22.4988077","address":"Tuulivuorentie 1"}},"Jalasjärvi":{"Jalasjärven hautausmaa":{"name":"Jalasjärven hautausmaa","lat":"62.5005445","lng":"22.7384685","address":"Rantatie 23"}},"Koskue":{"Koskuen hautausmaa":{"name":"Koskuen hautausmaa","lat":"62.36593569999999","lng":"22.8457308","address":"Mäkiviidantie 26"}},"Kauhajoki":{"Kauhajoen Kirkkomaan hautausmaa":{"name":"Kauhajoen Kirkkomaan hautausmaa","lat":"62.4184968","lng":"22.1807533","address":"Kyntäjäntie 2"},"Vuorenmäen hautausmaa":{"name":"Vuorenmäen hautausmaa","lat":"62.40699240000001","lng":"22.1549862","address":"Jokimaantie 46"}},"Nummijärvi":{"Nummijärven hautausmaa":{"name":"Nummijärven hautausmaa","lat":"62.28649069999999","lng":"22.4441867","address":"Nummijärventie 512"}},"Lapua":{"Simpsiön hautausmaa":{"name":"Simpsiön hautausmaa","lat":"62.9679176","lng":"22.9715537","address":"Kappelintie 19"}},"Tiistenjoki":{"Tiistenjoen hautausmaa":{"name":"Tiistenjoen hautausmaa","lat":"62.908075","lng":"23.2470892","address":"Pappilantie 10"}},"Kauhava":{"Kauhavan vanha hautausmaa":{"name":"Kauhavan vanha hautausmaa","lat":"63.0996237","lng":"23.0670477","address":"Vähäpassintie 190"},"Kauhavan uusi hautausmaa":{"name":"Kauhavan uusi hautausmaa","lat":"63.09822569999999","lng":"23.102167","address":"Juusolantie 38"},"Lepomaa":{"name":"Lepomaa","lat":"63.0910967","lng":"23.1030091","address":"Rytiläntie 6"}},"Kauhajärvi":{"Kauhajärven hautausmaa":{"name":"Kauhajärven hautausmaa","lat":"63.02375049999999","lng":"23.4316825","address":"Kirkkotie 21"}},"Härmä":{"Alahärmän hautausmaat":{"name":"Alahärmän hautausmaat","lat":"63.2462509","lng":"22.8537422","address":"Härmäntie 29"}},"Evijärvi":{"Evijärven hautausmaa":{"name":"Evijärven hautausmaa","lat":"63.3803214","lng":"23.4720923","address":"Kirkkotie 77"}},"Lappajärvi":{"Lappajärven hautausmaa":{"name":"Lappajärven hautausmaa","lat":"63.2127917","lng":"23.6491929","address":"Fellmannintie 3"}},"Vimpeli":{"Vimpelin hautausmaa":{"name":"Vimpelin hautausmaa","lat":"63.1632978","lng":"23.8246712","address":"Patruunantie 28"}},"Alajärvi":{"Hirsikankaan hautausmaa":{"name":"Hirsikankaan hautausmaa","lat":"62.99995819999999","lng":"23.7923729","address":"Hirsikankaantie 23"}},"Kuortane":{"Kuortaneen hautausmaa":{"name":"Kuortaneen hautausmaa","lat":"62.8075505","lng":"23.4940755","address":"Kirkkotie 23"}},"Alavus":{"Alavuden uusi hautausmaa":{"name":"Alavuden uusi hautausmaa","lat":"62.56439140000001","lng":"23.6333351","address":"Tusantie 98"},"Alavuden vanha hautausmaa":{"name":"Alavuden vanha hautausmaa","lat":"62.61787019999999","lng":"23.6004353","address":"Kirkkotie 77"}},"Lehtimäki":{"Lehtimäen kappeliseurakunnan hautausmaa":{"name":"Lehtimäen kappeliseurakunnan hautausmaa","lat":"62.7928","lng":"23.925","address":"Kirkonmäentie 1"},"Lehtimäen kappeliseurakunnan metsähautausmaa":{"name":"Lehtimäen kappeliseurakunnan metsähautausmaa","lat":"62.792665","lng":"23.923981","address":"Kirkonmäentie 1"}},"Töysä":{"Töysän hautausmaa":{"name":"Töysän hautausmaa","lat":"62.63266189999999","lng":"23.8160511","address":"Kappelitie 4"}},"Ähtäri":{"Ähtärin hautausmaa":{"name":"Ähtärin hautausmaa","lat":"62.55901770000001","lng":"24.0930127","address":"Kirkkotie 3"}},"Soini":{"Soinin hautausmaa":{"name":"Soinin hautausmaa","lat":"62.8795599","lng":"24.2346117","address":"Karstulantie 2"}},"Teuva":{"Teuvan uusi hautausmaa":{"name":"Teuvan uusi hautausmaa","lat":"62.478886","lng":"21.738446","address":"Porvarintie 53"},"Teuvan vanha hautausmaa":{"name":"Teuvan vanha hautausmaa","lat":"62.480942","lng":"21.742509","address":"Porvarintie 38"}},"Isojoki":{"Isojoen hautausmaa":{"name":"Isojoen hautausmaa","lat":"62.1128768","lng":"21.9574148","address":"Pappilantie 3"}},"Jurva":{"Jurvan vanha hautausmaa":{"name":"Jurvan vanha hautausmaa","lat":"62.6850938","lng":"21.9779815","address":"Kauppatie 12"},"Jurvan uusi hautausmaa":{"name":"Jurvan uusi hautausmaa","lat":"62.6449673","lng":"21.9986489","address":"Kauhajoentie 137"}}},"Pohjanmaa":{"Isokyrö":{"Isokyrön kirkkohautausmaa":{"name":"Isokyrön kirkkohautausmaa","lat":"63.0116622","lng":"22.3286286","address":"Ruusupurontie 31"},"Maijalan hautausmaa":{"name":"Maijalan hautausmaa","lat":"63.0133994","lng":"22.3293564","address":"Ulrikantie 1 A"}},"Kristiinankaupunki":{"Kristiinankaupungin vanha hautausmaa":{"name":"Kristiinankaupungin vanha hautausmaa","lat":"62.2748113","lng":"21.3890675","address":"Tiukantie 6A"}},"Närpiö":{"Närpiön hautausmaa":{"name":"Närpiön hautausmaa","lat":"62.4677178","lng":"21.3293682","address":"Kyrkvägen 17"}},"Lapväärtti":{"Lapväärtin kirkon hautausmaa":{"name":"Lapväärtin kirkon hautausmaa","lat":"62.2475708","lng":"21.5209162","address":"Eteläinen Lapväärtint. 118"}},"Vaasa":{"Vaasan uusi hautausmaa":{"name":"Vaasan uusi hautausmaa","lat":"63.10706320000001","lng":"21.6222769","address":"Vyörinkatu 1"},"Vaasan vanha hautausmaa":{"name":"Vaasan vanha hautausmaa","lat":"63.1092811","lng":"21.6163952","address":"Vyörinkatu 2d"}},"Maalahti":{"Maalahden hautausmaa":{"name":"Maalahden hautausmaa","lat":"62.938011","lng":"21.5729569","address":"Maalahden Kirkkotie 3"}},"Laihia":{"Laihian hautausmaa":{"name":"Laihian hautausmaa","lat":"62.9783708","lng":"22.0180299","address":"Laihiantie 37"}},"Vähäkyrö":{"Vähäkyrön hautausmaa":{"name":"Vähäkyrön hautausmaa","lat":"63.0531987","lng":"22.124678","address":"Hiiripellontie 4"}},"Oravainen":{"Oravaisten hautausmaa":{"name":"Oravaisten hautausmaa","lat":"63.27584030000001","lng":"22.4273987","address":"Kimovägen 19"}},"Uusikaarlepyy":{"Uudenkaarlepyyn hautausmaa":{"name":"Uudenkaarlepyyn hautausmaa","lat":"63.5364367","lng":"22.5370576","address":"Joensuuntie"}},"Munsala":{"Munsalan hautausmaa":{"name":"Munsalan hautausmaa","lat":"63.404968","lng":"22.445047","address":"Södra Munsalavägen 23"}},"Kruunupyy":{"Alavetelin hautausmaa":{"name":"Alavetelin hautausmaa","lat":"63.7053154","lng":"23.3293377","address":"Kirkkomäentie 15"}},"Teerijärvi":{"Teerijärven hautausmaa":{"name":"Teerijärven hautausmaa","lat":"63.5372917","lng":"23.5086289","address":"Hästbackvägen 1"}},"Larsmo":{"Luodon hautausmaa":{"name":"Luodon hautausmaa","lat":"63.7747651","lng":"22.7838128","address":"Fagernäsvägen 239"}},"Pietarsaari":{"Pietarsaaren vanha hautausmaa":{"name":"Pietarsaaren vanha hautausmaa","lat":"63.6796448","lng":"22.697196","address":"Ebba Brahen puistikko 2"},"Pedersören hautausmaa":{"name":"Pedersören hautausmaa","lat":"63.6643351","lng":"22.6979206","address":"Pitäjäntie"}},"Ähtävä":{"Ähtävän hautausmaa":{"name":"Ähtävän hautausmaa","lat":"63.5929998","lng":"23.0540434","address":"Urheilukentäntie"}},"Purmo":{"Purmon hautausmaa":{"name":"Purmon hautausmaa","lat":"63.51893039999999","lng":"22.9655558","address":"Purmontie 319"}}},"Keski-Pohjanmaa":{"Kokkola":{"Annan ja Marian hautausmaat":{"name":"Annan ja Marian hautausmaat","lat":"63.8285739","lng":"23.0966675","address":"Laajalahdentie"},"Elisabethin hautausmaa":{"name":"Elisabethin hautausmaa","lat":"63.8226156","lng":"23.1113059","address":"Vaasantie 190"},"Katariinan kalmisto":{"name":"Katariinan kalmisto","lat":"63.8364775","lng":"23.1243989","address":"Torikatu 43"}},"Kälviä":{"Kälviän hautausmaa":{"name":"Kälviän hautausmaa","lat":"63.79856710000001","lng":"23.5946059","address":"Kälviäntie 11"}},"Kannus":{"Kannuksen hautausmaa":{"name":"Kannuksen hautausmaa","lat":"63.9008215","lng":"23.9080171","address":"Tapulikatu 23"}},"Toholampi":{"Toholammen hautausmaa":{"name":"Toholammen hautausmaa","lat":"63.76348979999999","lng":"24.2699399","address":"Kirkkotie 149"},"Sykäräisen hautausmaa":{"name":"Sykäräisen hautausmaa","lat":"63.6202303","lng":"24.4102603","address":"Kappelintie 15"}},"Lestijärvi":{"Lestijärven kirkkomaa":{"name":"Lestijärven kirkkomaa","lat":"63.5271314","lng":"24.6612594","address":"Lestintie 16"}},"Halsua":{"Halsuan hautausmaa":{"name":"Halsuan hautausmaa","lat":"63.4591272","lng":"24.1700441","address":"Perhontie 20"}},"Kaustinen":{"Kaustisen Kirkomaa":{"name":"Kaustisen Kirkomaa","lat":"63.5493443","lng":"23.6931392","address":"Kappelintie 14"}},"Veteli":{"Vetelin seurakunnan hautausmaa":{"name":"Vetelin seurakunnan hautausmaa","lat":"63.476101","lng":"23.760357","address":"Torpantie 130"}}},"Pohjois-⁠Pohjanmaa":{"Himanka":{"Himangan hautausmaa":{"name":"Himangan hautausmaa","lat":"64.0507305","lng":"23.6453189","address":"Kannuskyläntie 14"}},"Ylivieska":{"Kankaan hautausmaa":{"name":"Kankaan hautausmaa","lat":"64.0945813","lng":"24.6292008","address":"Hietalantie 27"},"Heikkilän hautausmaa":{"name":"Heikkilän hautausmaa","lat":"64.0782844","lng":"24.5208825","address":"Rauhantie"},"Suvannon hautausmaa":{"name":"Suvannon hautausmaa","lat":"64.0724618","lng":"24.5586229","address":"Renssulantie 12"}},"Kalajoki":{"Kalajoen kirkkomaa":{"name":"Kalajoen kirkkomaa","lat":"64.2536396","lng":"23.9379441","address":"Seurakuntatie 1"},"Vuorenkallion hautausmaa":{"name":"Vuorenkallion hautausmaa","lat":"64.2559569","lng":"23.9266536","address":"Kappelitie 14"}},"Alavieska":{"Tikkasen hautausmaa":{"name":"Tikkasen hautausmaa","lat":"64.1649017","lng":"24.3065026","address":"Siltatie 9"},"Koissuon hautausmaa":{"name":"Koissuon hautausmaa","lat":"64.21875299999999","lng":"24.2856797","address":"Taluskyläntie 47"}},"Sievi":{"Sievin hautausmaa":{"name":"Sievin hautausmaa","lat":"63.90916540000001","lng":"24.5084348","address":"Kirkkotie 77"}},"Nivala":{"Nivalan uusi hautausmaa":{"name":"Nivalan uusi hautausmaa","lat":"63.947981","lng":"24.9781517","address":"Kajaanintie 183"}},"Haapajärvi":{"Olkkolan hautausmaa":{"name":"Olkkolan hautausmaa","lat":"63.8591984","lng":"25.4437912","address":"Ouluntie"},"Haapajärven kirkon hautausmaa":{"name":"Haapajärven kirkon hautausmaa","lat":"63.7475381","lng":"25.3153501","address":"Kirkkokatu"},"Karpalon hautausmaa":{"name":"Karpalon hautausmaa","lat":"63.74923","lng":"25.338253","address":"Riihitie 26"}},"Reisjärvi":{"Reisjärven kirkon hautausmaa":{"name":"Reisjärven kirkon hautausmaa","lat":"63.6042269","lng":"24.9372733","address":"Reisjärventie 15"}},"Reisjärvo":{"Tolpakankaan hautausmaa":{"name":"Tolpakankaan hautausmaa","lat":"63.62435749999999","lng":"24.8799498","address":"Sievintie 339"}},"Pyhäjoki":{"Pyhäjoen Vanha hautausmaa":{"name":"Pyhäjoen Vanha hautausmaa","lat":"64.4632118","lng":"24.2543973","address":"Vanhatie 27"},"Pyhäjoki Uusi hautausmaa":{"name":"Pyhäjoki Uusi hautausmaa","lat":"64.4720756","lng":"24.2785445","address":"Vihannintie"}},"Merijärvi":{"Pyhänkosken hautausmaa":{"name":"Pyhänkosken hautausmaa","lat":"64.35241429999999","lng":"24.4148745","address":"Rantatie 15"}},"Oulainen":{"Oulaisten hautausmaa":{"name":"Oulaisten hautausmaa","lat":"64.2677598","lng":"24.8242995","address":"Oulaistenkatu 26"}},"Vihanti":{"Vihannin hautausmaa":{"name":"Vihannin hautausmaa","lat":"64.491508","lng":"25.0127536","address":"Vanha Ouluntie"}},"Haapavesi":{"Haapaveden hautausmaa":{"name":"Haapaveden hautausmaa","lat":"64.1521866","lng":"25.3924068","address":"Sulkakyläntie 118"}},"Pyhäjärvi":{"Pyhäjärven hautausmaa":{"name":"Pyhäjärven hautausmaa","lat":"63.64844809999999","lng":"25.9715223","address":"Pyhäjärventie 470"}},"Oulu":{"Oulun hautausmaa":{"name":"Oulun hautausmaa","lat":"65.013133","lng":"25.4955061","address":"Kajaanintie 1,3,5"},"Oulujoen hautausmaa":{"name":"Oulujoen hautausmaa","lat":"65.0069754","lng":"25.5682914","address":"Sangintie 131"}},"Kempele":{"Kempeleen Kirkonmäen hautausmaa":{"name":"Kempeleen Kirkonmäen hautausmaa","lat":"64.916223","lng":"25.4854754","address":"Piriläntie 190"}},"Oulunsalo":{"Oulunsalon hautausmaa":{"name":"Oulunsalon hautausmaa","lat":"64.9355527","lng":"25.4228651","address":"Uhrikirkonkuja 7"}},"Hailuoto":{"Hailuodon hautausmaa":{"name":"Hailuodon hautausmaa","lat":"65.00920020000001","lng":"24.7156371","address":"Luovontie 52"}},"Haukipudas":{"Haukiputaan uusi hautausmaa":{"name":"Haukiputaan uusi hautausmaa","lat":"65.1753593","lng":"25.3558092","address":"Mirjantie 6"},"Haukiputaan vanha hautausmaa":{"name":"Haukiputaan vanha hautausmaa","lat":"65.178641","lng":"25.3493855","address":"Kirkkotie 77"}},"Kiiminki":{"Kiimingin hautausmaa":{"name":"Kiimingin hautausmaa","lat":"65.1354989","lng":"25.7593461","address":"Kirkonniementie 8"}},"Kontio":{"Jäälin hautausmaa":{"name":"Jäälin hautausmaa","lat":"65.1076138","lng":"25.6977024","address":"Hauipuskyläntie 305"}},"Ii":{"Kruununsaaren hautausmaa":{"name":"Kruununsaaren hautausmaa","lat":"65.329915","lng":"25.3764934","address":"Kruununsaari"},"Olhavan hautausmaa":{"name":"Olhavan hautausmaa","lat":"65.49714999999999","lng":"25.4715152","address":"Kiuttulantie 71"}},"Yli-Ii":{"Yli-Iin Kirkonkylän hautausmaa":{"name":"Yli-Iin Kirkonkylän hautausmaa","lat":"65.4400553","lng":"25.8437396","address":"Leuvantie 6"}},"Yli-Kiiminki":{"Ylikiimingin kirkkotarhat":{"name":"Ylikiimingin kirkkotarhat","lat":"65.030453","lng":"26.1353879","address":"Kirkkomäki 20"}},"Ylikiiminki":{"Kiciharjun hautausmaa":{"name":"Kiciharjun hautausmaa","lat":"65.046752","lng":"26.238805","address":"Niemikyläntie 38"},"Ylivuoton hautausmaa":{"name":"Ylivuoton hautausmaa","lat":"64.9398223","lng":"26.5707782","address":"Puolangantie 2586"}},"Muhos":{"Muhoksen hautausmaa":{"name":"Muhoksen hautausmaa","lat":"64.81357779999999","lng":"26.0009856","address":"Kirkkosaarentie 5"}},"Utajärvi":{"Utajärven kikonkylän hautausmaa":{"name":"Utajärven kikonkylän hautausmaa","lat":"64.7479178","lng":"26.4360999","address":"Putaalantie 10"},"Sotkan hautausmaa":{"name":"Sotkan hautausmaa","lat":"64.7834535","lng":"26.3022478","address":"Simintie 80"},"Niskan hautausmaa":{"name":"Niskan hautausmaa","lat":"64.6668731","lng":"26.55421","address":"Lähtevänojantie 20"}},"Juorkuna":{"Juorkunan hautausmaa":{"name":"Juorkunan hautausmaa","lat":"64.889588","lng":"26.8363046","address":"Puolangantie 405"}},"Sanginkylä":{"Sangin hautausmaa":{"name":"Sangin hautausmaa","lat":"64.860631","lng":"26.7178276","address":"Puutturintie 12"}},"Tyrnävä":{"Tyrnävän hautausmaa":{"name":"Tyrnävän hautausmaa","lat":"64.76689979999999","lng":"25.6597924","address":"Muhostie 6"}},"Liminka":{"Rantakylän hautausmaa":{"name":"Rantakylän hautausmaa","lat":"64.8052525","lng":"25.3627813","address":"Ylipääntie 18"},"Limingan vanha hautausmaa":{"name":"Limingan vanha hautausmaa","lat":"64.814296","lng":"25.4020594","address":"Kirkkotie"}},"Temmes":{"Temmeksen hautausmaa":{"name":"Temmeksen hautausmaa","lat":"64.675216","lng":"25.5980923","address":"Temmeksen kikkotie 1"}},"Lumijoki":{"Lumijoen hautausmaa":{"name":"Lumijoen hautausmaa","lat":"64.8133117","lng":"25.1728103","address":"Ukuranperäntie 30"}},"Raahe":{"Haaralan hautausmaa":{"name":"Haaralan hautausmaa","lat":"64.68053549999999","lng":"24.4856807","address":"Kappelintie 4"},"Piehingin hautausmaa":{"name":"Piehingin hautausmaa","lat":"64.5787579","lng":"24.3980847","address":"92220 Raahe"}},"Pattijoki":{"Pattijoen hautausmaat":{"name":"Pattijoen hautausmaat","lat":"64.6890525","lng":"24.5636238","address":"Koulutie 7, 10"}},"Saloinen":{"Saloisten hautausmaa":{"name":"Saloisten hautausmaa","lat":"64.6480092","lng":"24.4418453","address":"Kirkkoherrantie 17"}},"Siikajoki":{"Siikajoen hautausmaa":{"name":"Siikajoen hautausmaa","lat":"64.83753159999999","lng":"24.7364353","address":"Vanha Kirkkotie"}},"Revonlahti":{"Revonlahden hautausmaa":{"name":"Revonlahden hautausmaa","lat":"64.7191519","lng":"24.9621465","address":"Niemitie 3"}},"Paavola":{"Paavolan uusi hautausmaa":{"name":"Paavolan uusi hautausmaa","lat":"64.6083678","lng":"25.2069409","address":"Paavolantie 42"},"Paavolan kirkkomaa":{"name":"Paavolan kirkkomaa","lat":"64.60944529999999","lng":"25.1996753","address":"Paavolantie 15"}},"Rantsila":{"Rantsilan hautausmaa":{"name":"Rantsilan hautausmaa","lat":"64.5054292","lng":"25.655073","address":"Rantsilanraitti 10"}},"Pulkkila":{"Pulkkilan vanha hautausmaa":{"name":"Pulkkilan vanha hautausmaa","lat":"64.2687266","lng":"25.8640443","address":"Pakkalantie 2"},"Pulkkilan uusi hautausmaa":{"name":"Pulkkilan uusi hautausmaa","lat":"64.254356","lng":"25.877454","address":"Täperäntie 102"}},"Piippola":{"Piippolan hautausmaa":{"name":"Piippolan hautausmaa","lat":"64.178255","lng":"26.045148","address":"Iisalmentie 1527"}},"Kestilä":{"Kestilän hautausmaa":{"name":"Kestilän hautausmaa","lat":"64.3518457","lng":"26.2824288","address":"Kestilänraitti 3"}},"Pyhäntä":{"Pyhännän hautausmaa":{"name":"Pyhännän hautausmaa","lat":"64.1028283","lng":"26.3217824","address":"Kirkkotie 14"}},"Pudasjärvi":{"Pudasjärven hautausmaa":{"name":"Pudasjärven hautausmaa","lat":"65.3900378","lng":"26.9033313","address":"Siuruantie 256"},"Sarakylän hautausmaa":{"name":"Sarakylän hautausmaa","lat":"65.7429734","lng":"27.3489065","address":"Sarakyläntie 4823"}},"Taivalkoski":{"Kaakkurivaaran hautausmaa":{"name":"Kaakkurivaaran hautausmaa","lat":"65.5709459","lng":"28.2492682","address":"Kaakkurintie"}},"Kuusamo":{"Saukkoniemen hautausmaa":{"name":"Saukkoniemen hautausmaa","lat":"66.2989109","lng":"29.16664119999999","address":"Kitkajoentie 11"},"Käylän vanha hautausmaa":{"name":"Käylän vanha hautausmaa","lat":"66.3452006","lng":"29.07091539999999","address":"Sallantie 62"},"Nilon hautausmaa":{"name":"Nilon hautausmaa","lat":"65.97508979999999","lng":"29.17757679999999","address":"Viitatie 2"},"Ristikankaan hautausmaa":{"name":"Ristikankaan hautausmaa","lat":"65.9923503","lng":"29.2009839","address":"Votungintie 18"},"Kuusamon vanha hautausmaa":{"name":"Kuusamon vanha hautausmaa","lat":"65.9607552","lng":"29.1998886","address":"Kitronintie 11"}},"Kuivaniemi":{"Kuivaniemen hautausmaa":{"name":"Kuivaniemen hautausmaa","lat":"65.5937721","lng":"25.188844","address":"Vanhatie 66"}},"Oijärvi":{"Oijärven hautausmaa":{"name":"Oijärven hautausmaa","lat":"65.5978973","lng":"25.9519945","address":"Lamminperäntie 710"}},"Vasaraperä":{"Vasaraperän hautausmaa":{"name":"Vasaraperän hautausmaa","lat":"66.08333329999999","lng":"28.7000001","address":"93680 Vasaraperä"}}},"Pohjois-Savo":{"Kuopio":{"Flodbergin hautausmaa":{"name":"Flodbergin hautausmaa","lat":"62.90118349999999","lng":"27.6864348","address":"Hannikaisenkatu 7"},"Kuopion Iso hautausmaa":{"name":"Kuopion Iso hautausmaa","lat":"62.8992446","lng":"27.6714979","address":"Siunauskappelintie 3"},"Kettulahden hautausmaa":{"name":"Kettulahden hautausmaa","lat":"62.9787724","lng":"27.8641234","address":"Suurahontie 7"}},"Riistavesi":{"Riistaveden hautausmaa":{"name":"Riistaveden hautausmaa","lat":"62.91811800000001","lng":"28.1340527","address":"Joensuuntie 2505"}},"Vartiala":{"Hussonmäen hautausmaa":{"name":"Hussonmäen hautausmaa","lat":"62.93227090000001","lng":"28.0407545","address":"Hussonmäentie 96"}},"Tuusniemi":{"Tuusniemen hautausmaa":{"name":"Tuusniemen hautausmaa","lat":"62.8100197","lng":"28.4959327","address":"Jokitie 7"}},"Kosula":{"Ruskilan hautausmaa":{"name":"Ruskilan hautausmaa","lat":"62.7047767","lng":"28.4422471","address":"Luostaritie 2100"}},"Vehmersalmi":{"Vehmersalmen hautausmaa":{"name":"Vehmersalmen hautausmaa","lat":"62.76049949999999","lng":"28.0368782","address":"Huttujärventie 1"}},"Syvänniemi":{"Syvänniemen hautausmaa":{"name":"Syvänniemen hautausmaa","lat":"62.8582486","lng":"27.1575008","address":"Kuttajärventie 112"}},"Maaninka":{"Maaningan hautausmaa":{"name":"Maaningan hautausmaa","lat":"63.1497013","lng":"27.3098308","address":"Maaningantie 33"}},"Siilinjärvi":{"Rauhanpuiston hautausmaa":{"name":"Rauhanpuiston hautausmaa","lat":"63.07500229999999","lng":"27.6440464","address":"Harjamäentie 4"},"Viinamäen hautausmaa":{"name":"Viinamäen hautausmaa","lat":"63.0699645","lng":"27.6650148","address":"Kasurilantie 16"},"Siilinjärven sankarihautausmaa":{"name":"Siilinjärven sankarihautausmaa","lat":"63.0772955","lng":"27.6550229","address":"Haarahongantie 2"}},"Alapitkä":{"Alapitkän hautausmaa":{"name":"Alapitkän hautausmaa","lat":"63.1977991","lng":"27.543539","address":"Kirkkotie 1"}},"Karttula":{"Karttulan hautausmaa":{"name":"Karttulan hautausmaa","lat":"62.8895624","lng":"26.9662197","address":"Kirkkotie 28b"}},"Tervo":{"Karttulan vapaaseurakunnan hm":{"name":"Karttulan vapaaseurakunnan hm","lat":"63.0364656","lng":"27.0041005","address":"Riuttalantie 1629"},"Tervon kirkon hautausmaa":{"name":"Tervon kirkon hautausmaa","lat":"62.95036520000001","lng":"26.756266","address":"Kirkkotie 8"},"Talluskylän hautausmaa":{"name":"Talluskylän hautausmaa","lat":"63.0012302","lng":"27.0549177","address":"Riuttalantie 1632"}},"Vesanto":{"Vesannon Vanha hautausmaa":{"name":"Vesannon Vanha hautausmaa","lat":"62.93380699999999","lng":"26.4100652","address":"Koulutie 3"},"Vesannon uusi hautausmaa":{"name":"Vesannon uusi hautausmaa","lat":"62.93725550000001","lng":"26.4108725","address":"Toivontie 7"},"Rautalammin ortodoksinen hautausmaa":{"name":"Rautalammin ortodoksinen hautausmaa","lat":"62.932743","lng":"26.411154","address":"Koulutie 6"}},"Pielavesi":{"Pielaveden kirkon hautausmaa":{"name":"Pielaveden kirkon hautausmaa","lat":"63.23859179999999","lng":"26.743331","address":"Kirkkotie 1"},"Laukkalan hautausmaa":{"name":"Laukkalan hautausmaa","lat":"63.4031262","lng":"26.5594271","address":"Kyläkirkontie 29"},"Lehtolammin hautausmaa":{"name":"Lehtolammin hautausmaa","lat":"63.2312496","lng":"26.7743789","address":"Kisapolku 26"},"Pielaveden ort. Hautausmaa":{"name":"Pielaveden ort. Hautausmaa","lat":"63.23105520000001","lng":"26.7625229","address":"Puistotie 2"}},"Kiuruvesi":{"Koivujärven hautausmaa":{"name":"Koivujärven hautausmaa","lat":"63.54467560000001","lng":"26.2771796","address":"Kalliokyläntie 2195"},"Kiuruveden Päähautausmaa":{"name":"Kiuruveden Päähautausmaa","lat":"63.654697","lng":"26.625087","address":"Kirkkokatu"},"Lapinsalon hautausmaa":{"name":"Lapinsalon hautausmaa","lat":"63.87427259999999","lng":"26.6284113","address":"Lapinsalontie 2420"},"Kiuruvesi ort. Hautausmaa":{"name":"Kiuruvesi ort. Hautausmaa","lat":"63.652379","lng":"26.617459","address":"Niemistenkatu 6"},"Tuonelanharjun hautausmaa":{"name":"Tuonelanharjun hautausmaa","lat":"63.6811644","lng":"26.5519236","address":"Tuonelanharjuntie"},"Kiuruveden sankarihautausmaa":{"name":"Kiuruveden sankarihautausmaa","lat":"63.653726","lng":"26.626718","address":"Kirkkokatu"}},"Keitele":{"Keiteleen vanha hautausmaa":{"name":"Keiteleen vanha hautausmaa","lat":"63.1776518","lng":"26.3502696","address":"Kirkkotie 1"},"Keiteleen uusi hautausmaa":{"name":"Keiteleen uusi hautausmaa","lat":"63.17491","lng":"26.3460655","address":"Kiertotie"},"Keitele ort. Hautausmaa":{"name":"Keitele ort. Hautausmaa","lat":"63.1708846","lng":"26.3670599","address":"Arsenintie 1"}},"Lapinlahti":{"Lapinlahden hautausmaa":{"name":"Lapinlahden hautausmaa","lat":"63.3655729","lng":"27.403346","address":"Linnansalmentie 2"}},"Varpaisjärvi":{"Varpaisjärven hautausmaa":{"name":"Varpaisjärven hautausmaa","lat":"63.36373589999999","lng":"27.7553098","address":"Kauppatie 45"}},"Nilsiä":{"Kankaisen hautausmaa":{"name":"Kankaisen hautausmaa","lat":"63.2034525","lng":"28.0770948","address":"Keskisentie 1b"}},"Muuruvesi":{"Muuruveden hautausmaa":{"name":"Muuruveden hautausmaa","lat":"63.0223241","lng":"28.2004565","address":"Kustilankuja 75"}},"Juankoski":{"Juankosken (vanha) hautausmaa":{"name":"Juankosken (vanha) hautausmaa","lat":"63.0660831","lng":"28.330811","address":"Paaikoskentie 1"}},"Säyneinen":{"Säyneisen hautausmaa":{"name":"Säyneisen hautausmaa","lat":"63.21108419999999","lng":"28.4667958","address":"Kirkkoharjuntie 16"}},"Kaavi":{"Kaavin hautausmaa":{"name":"Kaavin hautausmaa","lat":"62.9768197","lng":"28.4910698","address":"Kaavintie 24"}},"Rautavaara":{"Rautavaaran kirkon hautausmaa":{"name":"Rautavaaran kirkon hautausmaa","lat":"63.4940466","lng":"28.2999816","address":"Kirkkotie"}},"Iisalmi":{"Sankariniemen hautausmaa":{"name":"Sankariniemen hautausmaa","lat":"63.55738789999999","lng":"27.2041447","address":"Sankarinkatu 22"},"Kangaslammin hautausmaa":{"name":"Kangaslammin hautausmaa","lat":"63.54084879999999","lng":"27.2280518","address":"Kangaslammintie 38"},"Iisalmen vanha hautausmaa":{"name":"Iisalmen vanha hautausmaa","lat":"63.5800262","lng":"27.1716536","address":"Kirkkotie 10"},"Iisalmi ort. Hautausmaa":{"name":"Iisalmi ort. Hautausmaa","lat":"63.55964230000001","lng":"27.1881995","address":"Kirkkopuistonkatu 28"}},"Vieremä":{"Vieremän kirkon hautausmaa":{"name":"Vieremän kirkon hautausmaa","lat":"63.73893959999999","lng":"27.013525","address":"Kirkkotie 1"},"Sahlamin ort. Hautausmaa":{"name":"Sahlamin ort. Hautausmaa","lat":"63.817709","lng":"26.9274148","address":"Latokankaantie 83"}},"Sonkajärvi":{"Sonkajärven hautausmaa":{"name":"Sonkajärven hautausmaa","lat":"63.6718197","lng":"27.5212062","address":"Rutakontie 3"}},"Sukeva":{"Sukevan sankarihautausmaa":{"name":"Sukevan sankarihautausmaa","lat":"63.87504029999999","lng":"27.4320752","address":"Raudanjoentie 21"},"Lahnakankaan hautausmaa":{"name":"Lahnakankaan hautausmaa","lat":"63.84414529999999","lng":"27.415049","address":"Lahnakankaantie 118"}},"Sulkavanjärvi":{"Sulkavänjärven hautausmaa":{"name":"Sulkavänjärven hautausmaa","lat":"63.4790596","lng":"26.7066173","address":"Kyläkirkontie 113"}},"Suonenjoki":{"Lepomäen hautausmaa":{"name":"Lepomäen hautausmaa","lat":"62.61749949999999","lng":"27.1207077","address":"Herralantie 118"},"Lepomäen vanha hautausmaa":{"name":"Lepomäen vanha hautausmaa","lat":"62.62399009999999","lng":"27.1267374","address":"Asemakatu 13"}},"Rautalampi":{"Rautalammin hautausmaa":{"name":"Rautalammin hautausmaa","lat":"62.6232161","lng":"26.8326955","address":"Kirkkotie 6"},"Rautalampi ort. Hautausmaa":{"name":"Rautalampi ort. Hautausmaa","lat":"62.625786","lng":"26.826882","address":"Nikolaoksentie 1"}},"Varkaus":{"Varkauden Kirkkolehto":{"name":"Varkauden Kirkkolehto","lat":"62.33589970000001","lng":"27.8771759","address":"Savontie 1"},"Ala-Kankun hautausmaa":{"name":"Ala-Kankun hautausmaa","lat":"62.33481349999999","lng":"27.8780349","address":"Savontie 1"},"Ylä-Kankun hautausmaa":{"name":"Ylä-Kankun hautausmaa","lat":"62.3409925","lng":"27.8614626","address":"Voimatie 3"},"Könönpellon hautausmaa":{"name":"Könönpellon hautausmaa","lat":"62.30214359999999","lng":"27.9486797","address":"Atolantie"},"Luttilan hautausmaa":{"name":"Luttilan hautausmaa","lat":"62.34345250000001","lng":"27.8602505","address":"Voimatie 3"}},"Leppävirta":{"Kaipolanmäen hautausmaa":{"name":"Kaipolanmäen hautausmaa","lat":"62.4932225","lng":"27.7790605","address":"Länsi-Saamaistentie 245"},"Karvonmaan hautausmaa":{"name":"Karvonmaan hautausmaa","lat":"62.5134539","lng":"27.9656901","address":"Mustinmäentie 313"},"Leppävirran Kirkonkylän hautausmaa":{"name":"Leppävirran Kirkonkylän hautausmaa","lat":"62.4901266","lng":"27.7775328","address":"Rinnetie"},"Kotalahden hautausmaa":{"name":"Kotalahden hautausmaa","lat":"62.5797578","lng":"27.5549221","address":"Kumpulahdentie 9"},"Nikkilänmäen hautausmaa":{"name":"Nikkilänmäen hautausmaa","lat":"62.4647745","lng":"27.776899","address":"Nikkilänmäentie 112"},"Näädänmaan hautausmaa":{"name":"Näädänmaan hautausmaa","lat":"62.498126","lng":"28.2381885","address":"Hietaniementie 113"},"Paukarlahden hautausmaa":{"name":"Paukarlahden hautausmaa","lat":"62.47681439999999","lng":"27.7720294","address":"Viitostie 3515"},"Saahkarlahden hautausmaa":{"name":"Saahkarlahden hautausmaa","lat":"62.35970150000001","lng":"28.0507366","address":"Kangasrannantie 23"}}},"Kainuu":{"Kajaani":{"Kajaanin vanha hautausmaa":{"name":"Kajaanin vanha hautausmaa","lat":"64.2339372","lng":"27.7153647","address":"Paltaniementie"}},"Paltaniemi":{"Paltaniemen hautausmaa":{"name":"Paltaniemen hautausmaa","lat":"64.2922336","lng":"27.6691038","address":"Siltalantie 18"}},"Vuolijoki":{"Vuolijoen hautausmaa":{"name":"Vuolijoen hautausmaa","lat":"64.1797619","lng":"27.0069625","address":"Papintie 2A"}},"Paltamo":{"Paltamon seurakunnan hautausmaa":{"name":"Paltamon seurakunnan hautausmaa","lat":"64.4085248","lng":"27.8346331","address":"Puolangantie 16-18"}},"Mamansalo":{"Manamansalon hautausmaa":{"name":"Manamansalon hautausmaa","lat":"64.377257","lng":"27.3052897","address":"Manamansalontie 3470"}},"Ristijärvi":{"Ristijärven hautausmaa":{"name":"Ristijärven hautausmaa","lat":"64.5054316","lng":"28.2151324","address":"Aholantie 31"}},"Sotkamo":{"Sotkamon hautausmaa":{"name":"Sotkamon hautausmaa","lat":"64.128031","lng":"28.409022","address":"Rauhantie 11"},"Sotkamo ort. Hautausmaa":{"name":"Sotkamo ort. Hautausmaa","lat":"64.128027","lng":"28.408882","address":"Rauhantie 13"}},"Kuhmo":{"Hakaniemen hautausmaa":{"name":"Hakaniemen hautausmaa","lat":"64.130771","lng":"29.523922","address":"Kainuuntie 64"},"Kuhmon uusi hautausmaa":{"name":"Kuhmon uusi hautausmaa","lat":"64.132682","lng":"29.543863","address":"Kappelikuja 1"}},"Puolanka":{"Huosiusniemen hautausmaa":{"name":"Huosiusniemen hautausmaa","lat":"64.8670249","lng":"27.6921514","address":"Huosiusniementie"},"Suolijärven hautausmaa":{"name":"Suolijärven hautausmaa","lat":"65.1449562","lng":"28.0658093","address":"Suolijärventie"},"Latvan hautausmaa":{"name":"Latvan hautausmaa","lat":"64.66065309999999","lng":"27.8752899","address":"Ristijärventie"},"Voipuan hautausmaa":{"name":"Voipuan hautausmaa","lat":"64.5620125","lng":"27.7017874","address":"Voipuantie"},"Lylykylän hautausmaa":{"name":"Lylykylän hautausmaa","lat":"64.9295278","lng":"27.9652767","address":"Lylykyläntie"}},"Hyrynsalmi":{"Saukkokangas":{"name":"Saukkokangas","lat":"64.6746828","lng":"28.4984369","address":"Nivantie"}},"Suomussalmi":{"Suomussalmen hautausmaa":{"name":"Suomussalmen hautausmaa","lat":"64.9007018","lng":"29.0148551","address":"Pyytie 49"},"Oolvelan hautausmaa":{"name":"Oolvelan hautausmaa","lat":"64.8841107","lng":"28.911656","address":"Likajoentie"},"Vuokin hautausmaa":{"name":"Vuokin hautausmaa","lat":"64.7419716","lng":"29.3647464","address":"Vuokinrannantie"}},"Vaala":{"Vaalan hautausmaa":{"name":"Vaalan hautausmaa","lat":"64.5660631","lng":"26.8988455","address":"Kajaanintie"}},"Säräisniemi":{"Säräisniemen hautausmaa":{"name":"Säräisniemen hautausmaa","lat":"64.4494505","lng":"26.7788947","address":"Säräisniementie"}}},"Lappi":{"Kemi":{"Paattionlehdon hautausmaa":{"name":"Paattionlehdon hautausmaa","lat":"65.7719207","lng":"24.5536432","address":"Tornionkatu 81"},"Peurasaaren hautausmaa":{"name":"Peurasaaren hautausmaa","lat":"65.7273622","lng":"24.5828763","address":"Ouluntie 3"}},"Keminmaa":{"Kallinkankaan hautausmaa":{"name":"Kallinkankaan hautausmaa","lat":"65.82407429999999","lng":"24.5254836","address":"Kallinkankaantie 131"}},"Tornio":{"Alatornion hautausmaa":{"name":"Alatornion hautausmaa","lat":"65.8305773","lng":"24.1575657","address":"Kirkonmäentie 85"},"Parasniemen hautausmaa":{"name":"Parasniemen hautausmaa","lat":"65.8305879","lng":"24.1635006","address":"Parasniementie 115"},"Suensaaren hautausmaa":{"name":"Suensaaren hautausmaa","lat":"65.8514673","lng":"24.1415325","address":"Seminaarinkatu"},"Karungin kirkon hautausmaa":{"name":"Karungin kirkon hautausmaa","lat":"66.0401924","lng":"24.0106407","address":"Kirkkotie"},"Karungin hautausmaa":{"name":"Karungin hautausmaa","lat":"66.0398347","lng":"24.0100875","address":"Kirkkotie"}},"Simoniemi":{"Simoniemen hautausmaa":{"name":"Simoniemen hautausmaa","lat":"65.6610623","lng":"24.899318","address":"Kirkkotarhantie 12"}},"Tervola":{"Tervolan seurakunnan hautausmaa":{"name":"Tervolan seurakunnan hautausmaa","lat":"66.083788","lng":"24.8051254","address":"Kirkkokuja"},"Tervola ort. Hautausmaa":{"name":"Tervola ort. Hautausmaa","lat":"66.12989809999999","lng":"24.7154351","address":"Tsasounantie 34"}},"Ylitornio":{"Ylitornion hautausmaa":{"name":"Ylitornion hautausmaa","lat":"66.31367469999999","lng":"23.6706969","address":"Alkkulanraitti 8"},"Meltosjärven hautausmaa":{"name":"Meltosjärven hautausmaa","lat":"66.5310245","lng":"24.6508069","address":"Raanujärventie 5088"}},"Pello":{"Pellon hautausmaa":{"name":"Pellon hautausmaa","lat":"66.796096","lng":"23.993686","address":"Kalottitie 10"}},"Turtola":{"Turtolan hautausmaa":{"name":"Turtolan hautausmaa","lat":"66.7955632","lng":"23.995111","address":"Torniontie 128"}},"Kolari":{"Kolarin hautausmaa":{"name":"Kolarin hautausmaa","lat":"67.3307052","lng":"23.7740535","address":"Pappilantie 4"},"Kolari Sieppijärvi":{"name":"Kolari Sieppijärvi","lat":"67.1486132","lng":"23.985612","address":"95800 Kolari"},"Kotivaaran hautausmaa":{"name":"Kotivaaran hautausmaa","lat":"67.2296399","lng":"24.1351536","address":"Peukalontie"}},"Rovaniemi":{"Rovaniemi I Hautausmaa":{"name":"Rovaniemi I Hautausmaa","lat":"66.4941042","lng":"25.7309188","address":"Sairaalakatu 1"},"Rovaniemi II hautausmaa":{"name":"Rovaniemi II hautausmaa","lat":"66.49478839999999","lng":"25.7264676","address":"Vapaudentie 34"},"Rovaniemi III hautausmaa":{"name":"Rovaniemi III hautausmaa","lat":"66.48680809999999","lng":"25.7057236","address":"Väylätie 37"},"Rovaniemi IV hautausmaa":{"name":"Rovaniemi IV hautausmaa","lat":"66.489092","lng":"25.6961697","address":"Väylätie 59"},"Auttin hautausmaa":{"name":"Auttin hautausmaa","lat":"66.3328034","lng":"27.0703261","address":"Kuusamontie 6976"},"Jouttikeron hautausmaa":{"name":"Jouttikeron hautausmaa","lat":"66.8263612","lng":"26.2064461","address":"Hangasjärventie 24"},"Leipeen hautausmaa":{"name":"Leipeen hautausmaa","lat":"66.3218553","lng":"25.1881408","address":"Pisantie 471"},"Misin hautausmaa":{"name":"Misin hautausmaa","lat":"66.6277857","lng":"25.785286","address":"Misintie 438"},"Paloniemen hautausmaa":{"name":"Paloniemen hautausmaa","lat":"66.4214961","lng":"25.4456624","address":"Paloniementie 34"},"Sinetän hautausmaa":{"name":"Sinetän hautausmaa","lat":"66.6567549","lng":"25.4417772","address":"Kittiläntie 2177"},"Tavivaaran hautausmaa":{"name":"Tavivaaran hautausmaa","lat":"66.4275952","lng":"25.6914207","address":"Tavivaarantie 345"},"Viirin hautausmaa":{"name":"Viirin hautausmaa","lat":"66.36587899999999","lng":"26.768694","address":"Kilpeläntie 46"}},"Lohiniva":{"Maijasen hautausmaa":{"name":"Maijasen hautausmaa","lat":"67.080553","lng":"25.078057","address":"Kittiläntie 8070"}},"Meltaus":{"Meltauksen hautausmaa":{"name":"Meltauksen hautausmaa","lat":"66.915971","lng":"25.36315","address":"Kittiläntie 5615"}},"Ranua":{"Ranuan Kirkonkylän hautausmaa":{"name":"Ranuan Kirkonkylän hautausmaa","lat":"65.93518519999999","lng":"26.507106","address":"Lehtokuja 2"},"Saukkojärven hautausmaa":{"name":"Saukkojärven hautausmaa","lat":"66.0305085","lng":"26.49086","address":"Toljantie 201"},"Simojärven hautausmaa":{"name":"Simojärven hautausmaa","lat":"66.0924382","lng":"27.1130655","address":"Kultisalmentie 12"}},"Posio":{"Posion hautausmaa":{"name":"Posion hautausmaa","lat":"66.092775","lng":"28.133108","address":"Taivalkoskentie 28"},"Ristilän hautausmaa":{"name":"Ristilän hautausmaa","lat":"66.10912739999999","lng":"28.1671128","address":"Morottajantie 160"},"Sarvisaaren hautausmaa":{"name":"Sarvisaaren hautausmaa","lat":"66.140653","lng":"28.0978692","address":"97900 Posio"}},"Kemijärvi":{"Honkakankaan hautausmaa":{"name":"Honkakankaan hautausmaa","lat":"66.70602339999999","lng":"27.3708015","address":"Pöyliöntie 62"},"Kemijärven vanha hautausmaa":{"name":"Kemijärven vanha hautausmaa","lat":"66.71576379999999","lng":"27.4340044","address":"Kirkkokatu 11"}},"Juujärvi":{"Juujärven hautausmaa":{"name":"Juujärven hautausmaa","lat":"66.3859089","lng":"27.2662166","address":"Mukantie"}},"Luusua":{"Luusuan hautausmaa":{"name":"Luusuan hautausmaa","lat":"66.538191","lng":"27.268597","address":"Luusuantie"}},"Suomulahti":{"Räisälän hautausmaa":{"name":"Räisälän hautausmaa","lat":"66.5798875","lng":"27.9009365","address":"Rytiniementie 19"}},"Tapionniemi":{"Tapionniemen hautausmaa":{"name":"Tapionniemen hautausmaa","lat":"66.9026769","lng":"27.4286414","address":"Airostie"}},"Vuostimo":{"Vuostimon hautausmaa":{"name":"Vuostimon hautausmaa","lat":"66.97517599999999","lng":"27.5139907","address":"Aapolantie"}},"Pelkosenniemi":{"Pelkosenniemen Vanha hautausmaa":{"name":"Pelkosenniemen Vanha hautausmaa","lat":"67.1214056","lng":"27.4887545","address":"Kumputie 3"},"Pelkosenniemen Uusi hautausmaa":{"name":"Pelkosenniemen Uusi hautausmaa","lat":"67.0626006","lng":"27.3222959","address":"Pyhäntie 344"}},"Savukoski":{"Savukosken hautausmaa":{"name":"Savukosken hautausmaa","lat":"67.290644","lng":"28.16485","address":"Joosepintie"}},"Salla":{"Sallan hautausmaa":{"name":"Sallan hautausmaa","lat":"66.81843479999999","lng":"28.6818282","address":"Kuusamontie 77"},"Hautajärven hautausmaa":{"name":"Hautajärven hautausmaa","lat":"66.83184469999999","lng":"28.6713257","address":"Kuusamontie"}},"Kursu":{"Kursun hautausmaa":{"name":"Kursun hautausmaa","lat":"66.90065799999999","lng":"27.6829536","address":"Pahkakummuntie"}},"Saija":{"Saijan hautausmaa":{"name":"Saijan hautausmaa","lat":"66.9819292","lng":"28.9471883","address":"Saijantie"}},"Kittilä":{"Kittilän hautausmaa":{"name":"Kittilän hautausmaa","lat":"67.67021629999999","lng":"24.8750401","address":"Aakenuksentie"},"Alakylän hautausmaa":{"name":"Alakylän hautausmaa","lat":"67.3280916","lng":"24.9041666","address":"Rovaniementie"},"Tepsan hautausmaa":{"name":"Tepsan hautausmaa","lat":"67.5149713","lng":"25.6057386","address":"Kelontekemäntie 44"}},"Kihlanki":{"Kihlangin hautausmaa":{"name":"Kihlangin hautausmaa","lat":"67.59543719999999","lng":"23.5500639","address":"Torniontie 4618"}},"Kätkäsuvanto":{"Kätkäsuvannon hautausmaa":{"name":"Kätkäsuvannon hautausmaa","lat":"68.1271893","lng":"23.3495545","address":"Kirjoituskannontie"}},"Muonio":{"Muonion Kirkkotahran hautausmaa":{"name":"Muonion Kirkkotahran hautausmaa","lat":"67.952869","lng":"23.669819","address":"Kirkkotie"}},"Enontekiö":{"Hetan uusi hautausmaa":{"name":"Hetan uusi hautausmaa","lat":"68.3838562","lng":"23.6332618","address":"Ruihantie 4"},"Hetan vanha hautausmaa":{"name":"Hetan vanha hautausmaa","lat":"68.29537739999999","lng":"24.022317","address":"Ounastie 104"}},"Karesuvanto":{"Karesuvannon Hietajoen hautausmaa":{"name":"Karesuvannon Hietajoen hautausmaa","lat":"68.44903339999999","lng":"22.4837512","address":"Hietaharjuntie 6"}},"Kilpisjärvi":{"Kilpisjärven muistolehto":{"name":"Kilpisjärven muistolehto","lat":"69.0127144","lng":"20.8899236","address":"Kärivarrentie 14143"}},"Palojoensuu":{"Pojoensuun hautausmaa":{"name":"Pojoensuun hautausmaa","lat":"68.2800788","lng":"23.0826507","address":"Muoniontie 39b"}},"Sodankylä":{"Sodankylän uusi hautausmaa":{"name":"Sodankylän uusi hautausmaa","lat":"67.415999","lng":"26.5889726","address":"Emauksen alue"},"Sodankylän vanha hautausmaa":{"name":"Sodankylän vanha hautausmaa","lat":"67.4146243","lng":"26.5970633","address":"Kirkkotie 1"},"Sodankylä Vuojärvi":{"name":"Sodankylä Vuojärvi","lat":"67.08619089999999","lng":"26.6117987","address":"99530 Sodankylä"}},"Syväjärvi":{"Unarin hautausmaa":{"name":"Unarin hautausmaa","lat":"67.2850201","lng":"25.8856748","address":"Meltauksentie 3857"}},"Inari":{"Ivalon hautausmaa":{"name":"Ivalon hautausmaa","lat":"68.633859","lng":"27.543237","address":"Rovaniementie 315"},"Sevettijärven hautausmaa":{"name":"Sevettijärven hautausmaa","lat":"69.5099759","lng":"28.5973","address":"Sevettijärventie 9065"},"Inarin hautausmaa":{"name":"Inarin hautausmaa","lat":"68.634","lng":"27.543066","address":"Rovaniementie 315"}},"Utsjoki":{"Karigasniemen hautausmaa":{"name":"Karigasniemen hautausmaa","lat":"69.4423189","lng":"25.8284407","address":"Ylätenontie 104"},"Utsjoen hautausmaa":{"name":"Utsjoen hautausmaa","lat":"69.6811494","lng":"27.0796336","address":"Utsjoentie 543"}},"Outakoski":{"Outakosken hautausmaa":{"name":"Outakosken hautausmaa","lat":"69.612275","lng":"25.9756982","address":"99950 Outakoski"}}}}